zip,lat,lng,city,state,state_code,county,country
99553,54.143,-165.7854,Akutan,Alaska,AK,Aleutians East,US
99571,55.1858,-162.7211,Cold Bay,Alaska,AK,Aleutians East,US
99583,54.8542,-163.4113,False Pass,Alaska,AK,Aleutians East,US
99612,55.0628,-162.3056,King Cove,Alaska,AK,Aleutians East,US
99661,55.3192,-160.4914,Sand Point,Alaska,AK,Aleutians East,US
99546,51.873999999999995,-176.63400000000001,Adak,Alaska,AK,Aleutians West (CA),US
99547,52.1961,-174.2006,Atka,Alaska,AK,Aleutians West (CA),US
99591,56.5944,-169.6186,Saint George Island,Alaska,AK,Aleutians West (CA),US
99638,52.9381,-168.8678,Nikolski,Alaska,AK,Aleutians West (CA),US
99660,57.1842,-170.2764,Saint Paul Island,Alaska,AK,Aleutians West (CA),US
99685,53.8871,-166.5199,Unalaska,Alaska,AK,Aleutians West (CA),US
99692,53.8898,-166.5422,Dutch Harbor,Alaska,AK,Aleutians West (CA),US
99501,61.2116,-149.8761,Anchorage,Alaska,AK,Anchorage Municipality,US
99502,61.1661,-149.96,Anchorage,Alaska,AK,Anchorage Municipality,US
99503,61.19,-149.8938,Anchorage,Alaska,AK,Anchorage Municipality,US
99504,61.2037,-149.7447,Anchorage,Alaska,AK,Anchorage Municipality,US
99505,59.8666,-158.5996,Jber,Alaska,AK,Anchorage Municipality,US
99506,59.8666,-158.5996,Jber,Alaska,AK,Anchorage Municipality,US
99507,61.1535,-149.8289,Anchorage,Alaska,AK,Anchorage Municipality,US
99508,61.206,-149.8101,Anchorage,Alaska,AK,Anchorage Municipality,US
99509,61.2181,-149.9003,Anchorage,Alaska,AK,Anchorage Municipality,US
99510,61.1446,-149.8784,Anchorage,Alaska,AK,Anchorage Municipality,US
99511,61.0683,-149.8005,Anchorage,Alaska,AK,Anchorage Municipality,US
99513,61.2149,-149.8862,Anchorage,Alaska,AK,Anchorage Municipality,US
99514,61.2181,-149.9003,Anchorage,Alaska,AK,Anchorage Municipality,US
99515,61.1194,-149.8974,Anchorage,Alaska,AK,Anchorage Municipality,US
99516,61.1054,-149.78,Anchorage,Alaska,AK,Anchorage Municipality,US
99517,61.1901,-149.9361,Anchorage,Alaska,AK,Anchorage Municipality,US
99518,61.1549,-149.8866,Anchorage,Alaska,AK,Anchorage Municipality,US
99519,61.1089,-149.4403,Anchorage,Alaska,AK,Anchorage Municipality,US
99520,61.2181,-149.9003,Anchorage,Alaska,AK,Anchorage Municipality,US
99521,61.2181,-149.9003,Anchorage,Alaska,AK,Anchorage Municipality,US
99522,61.2181,-149.9003,Anchorage,Alaska,AK,Anchorage Municipality,US
99523,61.2181,-149.9003,Anchorage,Alaska,AK,Anchorage Municipality,US
99524,61.2181,-149.9003,Anchorage,Alaska,AK,Anchorage Municipality,US
99529,61.1515,-149.9443,Anchorage,Alaska,AK,Anchorage Municipality,US
99530,61.1515,-149.9443,Anchorage,Alaska,AK,Anchorage Municipality,US
99540,61.1089,-149.4403,Indian,Alaska,AK,Anchorage Municipality,US
99567,61.4098,-149.4537,Chugiak,Alaska,AK,Anchorage Municipality,US
99577,61.3114,-149.5085,Eagle River,Alaska,AK,Anchorage Municipality,US
99587,60.9577,-149.1406,Girdwood,Alaska,AK,Anchorage Municipality,US
99599,61.1872,-149.8804,Anchorage,Alaska,AK,Anchorage Municipality,US
99695,61.1089,-149.4403,Anchorage,Alaska,AK,Anchorage Municipality,US
99545,59.9599,-162.8919,Kongiganak,Alaska,AK,Bethel Census Area,US
99551,60.9094,-161.4314,Akiachak,Alaska,AK,Bethel Census Area,US
99552,60.9122,-161.2139,Akiak,Alaska,AK,Bethel Census Area,US
99557,61.5783,-159.5222,Aniak,Alaska,AK,Bethel Census Area,US
99559,60.7922,-161.7558,Bethel,Alaska,AK,Bethel Census Area,US
99561,60.1537,-164.2103,Chefornak,Alaska,AK,Bethel Census Area,US
99575,61.8181,-158.0025,Crooked Creek,Alaska,AK,Bethel Census Area,US
99578,60.2151,-162.0323,Eek,Alaska,AK,Bethel Census Area,US
99589,59.1189,-161.5875,Goodnews Bay,Alaska,AK,Bethel Census Area,US
99607,61.541000000000004,-160.3261,Kalskag,Alaska,AK,Bethel Census Area,US
99609,60.8956,-162.5181,Kasigluk,Alaska,AK,Bethel Census Area,US
99614,59.9232,-164.101,Kipnuk,Alaska,AK,Bethel Census Area,US
99621,60.8122,-161.4358,Kwethluk,Alaska,AK,Bethel Census Area,US
99622,59.8644,-163.1342,Kwigillingok,Alaska,AK,Bethel Census Area,US
99626,61.5138,-160.36,Lower Kalskag,Alaska,AK,Bethel Census Area,US
99630,60.3657,-166.2836,Mekoryuk,Alaska,AK,Bethel Census Area,US
99634,60.6967,-161.9519,Napakiak,Alaska,AK,Bethel Census Area,US
99637,60.5338,-165.1037,Toksook Bay,Alaska,AK,Bethel Census Area,US
99641,60.8969,-162.4594,Nunapitchuk,Alaska,AK,Bethel Census Area,US
99651,59.0131,-161.8164,Platinum,Alaska,AK,Bethel Census Area,US
99655,59.7381,-161.8749,Quinhagak,Alaska,AK,Bethel Census Area,US
99656,61.7611,-157.3125,Red Devil,Alaska,AK,Bethel Census Area,US
99668,61.7025,-157.1697,Sleetmute,Alaska,AK,Bethel Census Area,US
99679,61.1088,-160.9389,Tuluksak,Alaska,AK,Bethel Census Area,US
99680,60.3431,-162.6631,Tuntutuliak,Alaska,AK,Bethel Census Area,US
99681,60.5856,-165.2558,Tununak,Alaska,AK,Bethel Census Area,US
99690,60.4794,-164.7239,Nightmute,Alaska,AK,Bethel Census Area,US
99613,58.6883,-156.6614,King Salmon,Alaska,AK,Bristol Bay,US
99633,58.783,-156.8992,Naknek,Alaska,AK,Bristol Bay,US
99670,58.6639,-156.9756,South Naknek,Alaska,AK,Bristol Bay,US
99704,64.2966,-149.1608,Clear,Alaska,AK,Denali,US
99729,63.3955,-148.8973,Cantwell,Alaska,AK,Denali,US
99743,63.9171,-149.0111,Healy,Alaska,AK,Denali,US
99744,64.3442,-149.1869,Anderson,Alaska,AK,Denali,US
99755,63.5436,-149.9867,Denali National Park,Alaska,AK,Denali,US
99555,59.2697,-158.6199,Aleknagik,Alaska,AK,Dillingham (CA),US
99569,58.8173,-158.5299,Clarks Point,Alaska,AK,Dillingham (CA),US
99576,59.0402,-158.5231,Dillingham,Alaska,AK,Dillingham (CA),US
99580,59.3628,-157.4782,Ekwok,Alaska,AK,Dillingham (CA),US
99628,59.0096,-158.9897,Manokotak,Alaska,AK,Dillingham (CA),US
99636,59.4882,-157.2905,New Stuyahok,Alaska,AK,Dillingham (CA),US
99678,59.0619,-160.3764,Togiak,Alaska,AK,Dillingham (CA),US
99701,64.8378,-147.7164,Fairbanks,Alaska,AK,Fairbanks North Star,US
99702,64.6735,-147.0805,Eielson Afb,Alaska,AK,Fairbanks North Star,US
99703,64.8283,-147.6557,Fort Wainwright,Alaska,AK,Fairbanks North Star,US
99705,64.7805,-147.3694,North Pole,Alaska,AK,Fairbanks North Star,US
99706,64.8521,-147.9377,Fairbanks,Alaska,AK,Fairbanks North Star,US
99707,64.8378,-147.7164,Fairbanks,Alaska,AK,Fairbanks North Star,US
99708,64.9475,-147.8564,Fairbanks,Alaska,AK,Fairbanks North Star,US
99709,64.8544,-147.8469,Fairbanks,Alaska,AK,Fairbanks North Star,US
99710,64.8378,-147.7164,Fairbanks,Alaska,AK,Fairbanks North Star,US
99711,64.8378,-147.7164,Fairbanks,Alaska,AK,Fairbanks North Star,US
99712,64.9109,-147.5105,Fairbanks,Alaska,AK,Fairbanks North Star,US
99714,64.5091,-146.953,Salcha,Alaska,AK,Fairbanks North Star,US
99716,64.8746,-146.8982,Two Rivers,Alaska,AK,Fairbanks North Star,US
99725,64.87100000000001,-148.0949,Ester,Alaska,AK,Fairbanks North Star,US
99775,64.8591,-147.8267,Fairbanks,Alaska,AK,Fairbanks North Star,US
99790,64.8378,-147.7164,Fairbanks,Alaska,AK,Fairbanks North Star,US
99827,59.2519,-135.542,Haines,Alaska,AK,Haines,US
99801,58.3628,-134.5294,Juneau,Alaska,AK,Juneau City and Borough,US
99802,58.3019,-134.4197,Juneau,Alaska,AK,Juneau City and Borough,US
99803,58.3019,-134.4197,Juneau,Alaska,AK,Juneau City and Borough,US
99811,58.3019,-134.4197,Juneau,Alaska,AK,Juneau City and Borough,US
99812,58.3271,-134.4742,Juneau,Alaska,AK,Juneau City and Borough,US
99821,58.4494,-134.7003,Auke Bay,Alaska,AK,Juneau City and Borough,US
99824,58.2756,-134.395,Douglas,Alaska,AK,Juneau City and Borough,US
99850,58.3019,-134.4197,Juneau,Alaska,AK,Juneau City and Borough,US
99556,59.8371,-151.7078,Anchor Point,Alaska,AK,Kenai Peninsula,US
99568,60.2311,-151.3936,Clam Gulch,Alaska,AK,Kenai Peninsula,US
99572,60.4767,-149.8235,Cooper Landing,Alaska,AK,Kenai Peninsula,US
99603,59.5374,-151.2356,Homer,Alaska,AK,Kenai Peninsula,US
99605,60.8726,-149.4683,Hope,Alaska,AK,Kenai Peninsula,US
99610,60.3164,-151.2896,Kasilof,Alaska,AK,Kenai Peninsula,US
99611,60.6145,-151.2546,Kenai,Alaska,AK,Kenai Peninsula,US
99631,60.6148,-149.4056,Moose Pass,Alaska,AK,Kenai Peninsula,US
99635,60.7007,-151.2766,Nikiski,Alaska,AK,Kenai Peninsula,US
99639,60.0108,-151.6396,Ninilchik,Alaska,AK,Kenai Peninsula,US
99663,59.4495,-151.7009,Seldovia,Alaska,AK,Kenai Peninsula,US
99664,60.1329,-149.3985,Seward,Alaska,AK,Kenai Peninsula,US
99669,60.4818,-151.1358,Soldotna,Alaska,AK,Kenai Peninsula,US
99672,60.5136,-150.8532,Sterling,Alaska,AK,Kenai Peninsula,US
99682,61.0681,-151.1369,Tyonek,Alaska,AK,Kenai Peninsula,US
99901,55.372,-131.6832,Ketchikan,Alaska,AK,Ketchikan Gateway,US
99928,55.3954,-131.6754,Ward Cove,Alaska,AK,Ketchikan Gateway,US
99950,55.3422,-131.6478,Ketchikan,Alaska,AK,Ketchikan Gateway,US
99550,57.8675,-152.8822,Port Lions,Alaska,AK,Kodiak Island,US
99608,57.5689,-154.4551,Karluk,Alaska,AK,Kodiak Island,US
99615,57.6036,-153.3751,Kodiak,Alaska,AK,Kodiak Island,US
99619,57.79,-152.4072,Kodiak,Alaska,AK,Kodiak Island,US
99624,57.54,-153.9786,Larsen Bay,Alaska,AK,Kodiak Island,US
99643,57.2028,-153.3039,Old Harbor,Alaska,AK,Kodiak Island,US
99644,57.9236,-152.5022,Ouzinkie,Alaska,AK,Kodiak Island,US
99697,57.79,-152.4072,Kodiak,Alaska,AK,Kodiak Island,US
99554,62.6944,-164.6475,Alakanuk,Alaska,AK,Kusilvak,US
99563,61.528999999999996,-165.5905,Chevak,Alaska,AK,Kusilvak,US
99581,62.7818,-164.5335,Emmonak,Alaska,AK,Kusilvak,US
99585,61.9287,-162.268,Marshall,Alaska,AK,Kusilvak,US
99604,61.527,-166.1151,Hooper Bay,Alaska,AK,Kusilvak,US
99620,63.0295,-163.5542,Kotlik,Alaska,AK,Kusilvak,US
99632,62.1123,-163.6644,Mountain Village,Alaska,AK,Kusilvak,US
99650,61.9462,-162.8747,Pilot Station,Alaska,AK,Kusilvak,US
99657,61.7744,-161.3939,Russian Mission,Alaska,AK,Kusilvak,US
99658,62.1172,-163.2376,Saint Marys,Alaska,AK,Kusilvak,US
99662,61.845,-165.5819,Scammon Bay,Alaska,AK,Kusilvak,US
99666,62.5309,-164.8496,Nunam Iqua,Alaska,AK,Kusilvak,US
99548,56.2448,-158.7578,Chignik Lake,Alaska,AK,Lake and Peninsula,US
99549,56.9643,-158.5664,Port Heiden,Alaska,AK,Lake and Peninsula,US
99564,56.3016,-158.4157,Chignik,Alaska,AK,Lake and Peninsula,US
99565,58.2687,-156.6484,Chignik Lagoon,Alaska,AK,Lake and Peninsula,US
99579,58.2062,-157.3422,Egegik,Alaska,AK,Lake and Peninsula,US
99606,59.7525,-154.8236,Iliamna,Alaska,AK,Lake and Peninsula,US
99625,59.2905,-156.6503,Levelock,Alaska,AK,Lake and Peninsula,US
99640,59.9736,-154.8458,Nondalton,Alaska,AK,Lake and Peninsula,US
99647,59.8681,-154.0757,Pedro Bay,Alaska,AK,Lake and Peninsula,US
99648,55.9453,-159.2593,Perryville,Alaska,AK,Lake and Peninsula,US
99649,57.5642,-157.5792,Pilot Point,Alaska,AK,Lake and Peninsula,US
99653,60.2025,-154.3128,Port Alsworth,Alaska,AK,Lake and Peninsula,US
99623,61.5463,-149.5901,Wasilla,Alaska,AK,Matanuska-Susitna Borough,US
99629,61.5841,-149.4436,Wasilla,Alaska,AK,Matanuska-Susitna Borough,US
99645,61.6303,-148.9872,Palmer,Alaska,AK,Matanuska-Susitna Borough,US
99652,61.5214,-149.9544,Big Lake,Alaska,AK,Matanuska-Susitna Borough,US
99654,61.5923,-149.3959,Wasilla,Alaska,AK,Matanuska-Susitna Borough,US
99667,61.9903,-151.3978,Skwentna,Alaska,AK,Matanuska-Susitna Borough,US
99674,61.7327,-148.7837,Sutton,Alaska,AK,Matanuska-Susitna Borough,US
99676,62.2605,-150.1101,Talkeetna,Alaska,AK,Matanuska-Susitna Borough,US
99683,62.3167,-150.2314,Trapper Creek,Alaska,AK,Matanuska-Susitna Borough,US
99687,61.5313,-149.4784,Wasilla,Alaska,AK,Matanuska-Susitna Borough,US
99688,61.8966,-150.0038,Willow,Alaska,AK,Matanuska-Susitna Borough,US
99694,61.6303,-149.8181,Houston,Alaska,AK,Matanuska-Susitna Borough,US
99659,63.4776,-162.1091,Saint Michael,Alaska,AK,Nome (CA),US
99671,63.5222,-162.2881,Stebbins,Alaska,AK,Nome (CA),US
99684,63.8835,-160.7884,Unalakleet,Alaska,AK,Nome (CA),US
99739,64.6217,-162.2604,Elim,Alaska,AK,Nome (CA),US
99742,63.7766,-171.7017,Gambell,Alaska,AK,Nome (CA),US
99753,64.9319,-161.1569,Koyuk,Alaska,AK,Nome (CA),US
99762,64.5011,-165.4064,Nome,Alaska,AK,Nome (CA),US
99769,63.6797,-170.4709,Savoonga,Alaska,AK,Nome (CA),US
99771,64.3537,-161.1932,Shaktoolik,Alaska,AK,Nome (CA),US
99772,66.2306,-166.1373,Shishmaref,Alaska,AK,Nome (CA),US
99778,65.2402,-166.3833,Teller,Alaska,AK,Nome (CA),US
99783,65.6092,-168.0875,Wales,Alaska,AK,Nome (CA),US
99784,64.6814,-163.4056,White Mountain,Alaska,AK,Nome (CA),US
99785,65.3342,-166.4786,Brevig Mission,Alaska,AK,Nome (CA),US
99721,68.1433,-151.7358,Anaktuvuk Pass,Alaska,AK,North Slope,US
99723,71.2346,-156.8174,Barrow,Alaska,AK,North Slope,US
99734,70.2922,-148.6694,Prudhoe Bay,Alaska,AK,North Slope,US
99747,70.1319,-143.6239,Kaktovik,Alaska,AK,North Slope,US
99759,69.7439,-163.0084,Point Lay,Alaska,AK,North Slope,US
99766,68.3486,-166.7347,Point Hope,Alaska,AK,North Slope,US
99782,70.6369,-160.0383,Wainwright,Alaska,AK,North Slope,US
99789,70.1927,-150.9971,Nuiqsut,Alaska,AK,North Slope,US
99791,70.4947,-157.4411,Atqasuk,Alaska,AK,North Slope,US
99727,65.9789,-161.1262,Buckland,Alaska,AK,Northwest Arctic,US
99736,66.0737,-162.714,Deering,Alaska,AK,Northwest Arctic,US
99749,66.975,-160.4228,Kiana,Alaska,AK,Northwest Arctic,US
99750,67.7269,-164.5333,Kivalina,Alaska,AK,Northwest Arctic,US
99751,66.9072,-156.8811,Kobuk,Alaska,AK,Northwest Arctic,US
99752,66.8985,-162.5981,Kotzebue,Alaska,AK,Northwest Arctic,US
99761,67.5711,-162.9653,Noatak,Alaska,AK,Northwest Arctic,US
99763,66.8364,-161.0441,Noorvik,Alaska,AK,Northwest Arctic,US
99770,66.6039,-160.0069,Selawik,Alaska,AK,Northwest Arctic,US
99773,66.8881,-157.1364,Shungnak,Alaska,AK,Northwest Arctic,US
99786,67.0861,-157.8514,Ambler,Alaska,AK,Northwest Arctic,US
99903,55.7408,-132.2564,Meyers Chuck,Alaska,AK,Prince of Wales-Hyder,US
99918,55.9524,-132.7503,Coffman Cove,Alaska,AK,Prince of Wales-Hyder,US
99919,55.6609,-132.5138,Thorne Bay,Alaska,AK,Prince of Wales-Hyder,US
99921,55.4732,-133.1171,Craig,Alaska,AK,Prince of Wales-Hyder,US
99922,55.2087,-132.8259,Hydaburg,Alaska,AK,Prince of Wales-Hyder,US
99923,55.9169,-130.0247,Hyder,Alaska,AK,Prince of Wales-Hyder,US
99925,55.5526,-133.0555,Klawock,Alaska,AK,Prince of Wales-Hyder,US
99926,55.1215,-131.579,Metlakatla,Alaska,AK,Prince of Wales-Hyder,US
99927,56.3528,-133.6211,Point Baker,Alaska,AK,Prince of Wales-Hyder,US
99835,57.0514,-135.3166,Sitka,Alaska,AK,Sitka City and Borough,US
99689,59.812,-139.5505,Yakutat,Alaska,AK,Skagway-Hoonah-Angoon,US
99820,57.5005,-134.586,Angoon,Alaska,AK,Skagway-Hoonah-Angoon,US
99825,58.1944,-136.3433,Elfin Cove,Alaska,AK,Skagway-Hoonah-Angoon,US
99826,58.4284,-135.7615,Gustavus,Alaska,AK,Skagway-Hoonah-Angoon,US
99829,58.0977,-135.4316,Hoonah,Alaska,AK,Skagway-Hoonah-Angoon,US
99832,57.9608,-136.2275,Pelican,Alaska,AK,Skagway-Hoonah-Angoon,US
99840,59.4685,-135.3018,Skagway,Alaska,AK,Skagway-Hoonah-Angoon,US
99841,57.7808,-135.2189,Tenakee Springs,Alaska,AK,Skagway-Hoonah-Angoon,US
99731,63.952,-146.451,Fort Greely,Alaska,AK,Southeast Fairbanks Census Area,US
99732,64.0733,-141.9361,Chicken,Alaska,AK,Southeast Fairbanks Census Area,US
99737,64.0378,-145.7322,Delta Junction,Alaska,AK,Southeast Fairbanks Census Area,US
99738,64.7881,-141.2,Eagle,Alaska,AK,Southeast Fairbanks Census Area,US
99764,62.9617,-141.9372,Northway,Alaska,AK,Southeast Fairbanks Census Area,US
99776,63.3853,-143.3464,Tanacross,Alaska,AK,Southeast Fairbanks Census Area,US
99780,63.3367,-142.9856,Tok,Alaska,AK,Southeast Fairbanks Census Area,US
99566,61.5156,-144.4396,Chitina,Alaska,AK,Valdez-Cordova (CA),US
99573,61.977,-145.3297,Copper Center,Alaska,AK,Valdez-Cordova (CA),US
99574,60.5362,-145.7534,Cordova,Alaska,AK,Valdez-Cordova (CA),US
99586,62.3014,-145.3027,Gakona,Alaska,AK,Valdez-Cordova (CA),US
99588,62.1039,-145.6617,Glennallen,Alaska,AK,Valdez-Cordova (CA),US
99677,60.8906,-146.6703,Tatitlek,Alaska,AK,Valdez-Cordova (CA),US
99686,61.101000000000006,-146.9,Valdez,Alaska,AK,Valdez-Cordova (CA),US
99693,60.7734,-148.6839,Whittier,Alaska,AK,Valdez-Cordova (CA),US
99830,56.9736,-133.936,Kake,Alaska,AK,Wrangell-Petersburg (C,US
99833,56.8271,-133.1607,Petersburg,Alaska,AK,Wrangell-Petersburg (C,US
99836,56.2497,-134.6444,Port Alexander,Alaska,AK,Wrangell-Petersburg (C,US
99929,56.4335,-132.3529,Wrangell,Alaska,AK,Wrangell-Petersburg (C,US
99558,62.6561,-160.2067,Anvik,Alaska,AK,Yukon-Koyukuk (CA),US
99590,62.9036,-160.0647,Grayling,Alaska,AK,Yukon-Koyukuk (CA),US
99602,62.1926,-159.8251,Holy Cross,Alaska,AK,Yukon-Koyukuk (CA),US
99627,62.9457,-155.5712,Mc Grath,Alaska,AK,Yukon-Koyukuk (CA),US
99665,62.6822,-159.5619,Shageluk,Alaska,AK,Yukon-Koyukuk (CA),US
99675,62.9886,-156.0642,Takotna,Alaska,AK,Yukon-Koyukuk (CA),US
99691,63.0133,-154.375,Nikolai,Alaska,AK,Yukon-Koyukuk (CA),US
99720,66.5656,-152.6456,Allakaket,Alaska,AK,Yukon-Koyukuk (CA),US
99722,68.1269,-145.5378,Arctic Village,Alaska,AK,Yukon-Koyukuk (CA),US
99724,66.3594,-147.3964,Beaver,Alaska,AK,Yukon-Koyukuk (CA),US
99726,65.2264,-151.0251,Bettles Field,Alaska,AK,Yukon-Koyukuk (CA),US
99730,65.4681,-144.7489,Central,Alaska,AK,Yukon-Koyukuk (CA),US
99733,65.8245,-144.0826,Circle,Alaska,AK,Yukon-Koyukuk (CA),US
99740,66.5647,-145.2739,Fort Yukon,Alaska,AK,Yukon-Koyukuk (CA),US
99741,64.7333,-156.9275,Galena,Alaska,AK,Yukon-Koyukuk (CA),US
99745,66.0382,-154.2644,Hughes,Alaska,AK,Yukon-Koyukuk (CA),US
99746,65.6899,-156.292,Huslia,Alaska,AK,Yukon-Koyukuk (CA),US
99748,64.3305,-158.7243,Kaltag,Alaska,AK,Yukon-Koyukuk (CA),US
99754,64.8803,-157.7008,Koyukuk,Alaska,AK,Yukon-Koyukuk (CA),US
99756,65.0011,-150.6339,Manley Hot Springs,Alaska,AK,Yukon-Koyukuk (CA),US
99757,63.8828,-152.3122,Lake Minchumina,Alaska,AK,Yukon-Koyukuk (CA),US
99758,65.0584,-149.6912,Minto,Alaska,AK,Yukon-Koyukuk (CA),US
99760,64.5577,-149.0867,Nenana,Alaska,AK,Yukon-Koyukuk (CA),US
99765,64.7194,-158.1031,Nulato,Alaska,AK,Yukon-Koyukuk (CA),US
99767,65.509,-150.1619,Rampart,Alaska,AK,Yukon-Koyukuk (CA),US
99768,64.7201,-155.5039,Ruby,Alaska,AK,Yukon-Koyukuk (CA),US
99774,66.0064,-149.0908,Stevens Village,Alaska,AK,Yukon-Koyukuk (CA),US
99777,65.1719,-152.0789,Tanana,Alaska,AK,Yukon-Koyukuk (CA),US
99781,67.0104,-146.4137,Venetie,Alaska,AK,Yukon-Koyukuk (CA),US
99788,66.6544,-143.7222,Chalkyitsik,Alaska,AK,Yukon-Koyukuk (CA),US
36003,32.4625,-86.7149,Autaugaville,Alabama,AL,Autauga,US
36006,32.6596,-86.7178,Billingsley,Alabama,AL,Autauga,US
36008,32.5016,-86.5727,Booth,Alabama,AL,Autauga,US
36051,32.6841,-86.4946,Marbury,Alabama,AL,Autauga,US
36066,32.4787,-86.43,Prattville,Alabama,AL,Autauga,US
36067,32.4715,-86.4831,Prattville,Alabama,AL,Autauga,US
36068,32.464,-86.4597,Prattville,Alabama,AL,Autauga,US
36749,32.5104,-86.8138,Jones,Alabama,AL,Autauga,US
36507,30.8635,-87.7644,Bay Minette,Alabama,AL,Baldwin,US
36511,30.3128,-87.7431,Bon Secour,Alabama,AL,Baldwin,US
36526,30.6197,-87.8895,Daphne,Alabama,AL,Baldwin,US
36527,30.6959,-87.8867,Spanish Fort,Alabama,AL,Baldwin,US
36530,30.3942,-87.589,Elberta,Alabama,AL,Baldwin,US
36532,30.5012,-87.8835,Fairhope,Alabama,AL,Baldwin,US
36533,30.4841,-87.8606,Fairhope,Alabama,AL,Baldwin,US
36535,30.4007,-87.6857,Foley,Alabama,AL,Baldwin,US
36536,30.4222,-87.7064,Foley,Alabama,AL,Baldwin,US
36542,30.2717,-87.7589,Gulf Shores,Alabama,AL,Baldwin,US
36547,30.246,-87.7008,Gulf Shores,Alabama,AL,Baldwin,US
36549,30.3972,-87.4745,Lillian,Alabama,AL,Baldwin,US
36550,31.2246,-87.7548,Little River,Alabama,AL,Baldwin,US
36551,30.618000000000002,-87.7562,Loxley,Alabama,AL,Baldwin,US
36555,30.3996,-87.7761,Magnolia Springs,Alabama,AL,Baldwin,US
36559,30.5623,-87.9005,Montrose,Alabama,AL,Baldwin,US
36561,30.281,-87.5815,Orange Beach,Alabama,AL,Baldwin,US
36562,31.0403,-87.6667,Perdido,Alabama,AL,Baldwin,US
36564,30.4741,-87.9192,Point Clear,Alabama,AL,Baldwin,US
36567,30.5616,-87.6373,Robertsdale,Alabama,AL,Baldwin,US
36574,30.5048,-87.4659,Seminole,Alabama,AL,Baldwin,US
36576,30.5222,-87.7457,Silverhill,Alabama,AL,Baldwin,US
36577,30.6749,-87.9153,Spanish Fort,Alabama,AL,Baldwin,US
36578,30.7476,-87.7787,Stapleton,Alabama,AL,Baldwin,US
36579,31.0129,-87.8633,Stockton,Alabama,AL,Baldwin,US
36580,30.4752,-87.6992,Summerdale,Alabama,AL,Baldwin,US
36016,31.8874,-85.4509,Clayton,Alabama,AL,Barbour,US
36017,31.6852,-85.5904,Clio,Alabama,AL,Barbour,US
36027,31.9051,-85.1656,Eufaula,Alabama,AL,Barbour,US
36048,31.7943,-85.5581,Louisville,Alabama,AL,Barbour,US
36072,31.8913,-85.1455,Eufaula,Alabama,AL,Barbour,US
35034,32.9357,-87.2114,Brent,Alabama,AL,Bibb,US
35035,33.0427,-86.9517,Brierfield,Alabama,AL,Bibb,US
35042,32.9503,-87.1192,Centreville,Alabama,AL,Bibb,US
35074,33.2251,-87.1264,Green Pond,Alabama,AL,Bibb,US
35184,33.1424,-87.1369,West Blocton,Alabama,AL,Bibb,US
35188,33.2068,-87.15,Woodstock,Alabama,AL,Bibb,US
36792,32.8888,-86.90700000000001,Randolph,Alabama,AL,Bibb,US
36793,32.8646,-86.9567,Lawley,Alabama,AL,Bibb,US
35013,33.9222,-86.4493,Allgood,Alabama,AL,Blount,US
35031,34.0929,-86.5686,Blountsville,Alabama,AL,Blount,US
35049,33.9778,-86.5598,Cleveland,Alabama,AL,Blount,US
35079,33.9534,-86.7455,Hayden,Alabama,AL,Blount,US
35097,33.905,-86.6261,Locust Fork,Alabama,AL,Blount,US
35121,33.9259,-86.4741,Oneonta,Alabama,AL,Blount,US
35133,33.8168,-86.6008,Remlap,Alabama,AL,Blount,US
36029,32.2165,-85.8888,Fitzpatrick,Alabama,AL,Bullock,US
36053,32.0955,-85.5315,Midway,Alabama,AL,Bullock,US
36061,32.0928,-85.7046,Perote,Alabama,AL,Bullock,US
36089,32.1443,-85.7149,Union Springs,Alabama,AL,Bullock,US
36015,31.6427,-86.7343,Chapman,Alabama,AL,Butler,US
36030,31.8501,-86.8372,Forest Home,Alabama,AL,Butler,US
36033,31.6287,-86.734,Georgiana,Alabama,AL,Butler,US
36037,31.81,-86.6229,Greenville,Alabama,AL,Butler,US
36456,31.545,-86.7356,Mc Kenzie,Alabama,AL,Butler,US
36201,33.6539,-85.8382,Anniston,Alabama,AL,Calhoun,US
36202,33.7622,-85.8378,Anniston,Alabama,AL,Calhoun,US
36203,33.5815,-85.8328,Oxford,Alabama,AL,Calhoun,US
36204,33.7622,-85.8378,Anniston,Alabama,AL,Calhoun,US
36205,33.7358,-85.7933,Anniston,Alabama,AL,Calhoun,US
36206,33.7191,-85.8389,Anniston,Alabama,AL,Calhoun,US
36207,33.6803,-85.7137,Anniston,Alabama,AL,Calhoun,US
36250,33.7808,-85.8924,Alexandria,Alabama,AL,Calhoun,US
36253,33.7622,-85.8378,Bynum,Alabama,AL,Calhoun,US
36254,33.6573,-85.6991,Choccolocco,Alabama,AL,Calhoun,US
36257,33.7622,-85.8378,De Armanville,Alabama,AL,Calhoun,US
36260,33.6031,-85.9608,Eastaboga,Alabama,AL,Calhoun,US
36265,33.830999999999996,-85.7752,Jacksonville,Alabama,AL,Calhoun,US
36271,33.7788,-86.0254,Ohatchee,Alabama,AL,Calhoun,US
36272,33.8389,-85.646,Piedmont,Alabama,AL,Calhoun,US
36277,33.7563,-85.8107,Weaver,Alabama,AL,Calhoun,US
36279,33.8226,-85.8927,Wellington,Alabama,AL,Calhoun,US
36852,32.7831,-85.2756,Cusseta,Alabama,AL,Chambers,US
36854,32.8113,-85.1749,Valley,Alabama,AL,Chambers,US
36855,33.0424,-85.3243,Five Points,Alabama,AL,Chambers,US
36862,32.9252,-85.4426,Lafayette,Alabama,AL,Chambers,US
36863,32.8616,-85.2161,Lanett,Alabama,AL,Chambers,US
35959,34.2417,-85.6026,Cedar Bluff,Alabama,AL,Cherokee,US
35960,34.1116,-85.6092,Centre,Alabama,AL,Cherokee,US
35973,34.3573,-85.5589,Gaylesville,Alabama,AL,Cherokee,US
35983,34.1911,-85.7705,Leesburg,Alabama,AL,Cherokee,US
36275,33.9778,-85.5521,Spring Garden,Alabama,AL,Cherokee,US
35045,32.8355,-86.6425,Clanton,Alabama,AL,Chilton,US
35046,32.9229,-86.545,Clanton,Alabama,AL,Chilton,US
35085,32.9805,-86.7181,Jemison,Alabama,AL,Chilton,US
35171,32.9157,-86.7158,Thorsby,Alabama,AL,Chilton,US
36091,32.7499,-86.5114,Verbena,Alabama,AL,Chilton,US
36750,32.8045,-86.8717,Maplesville,Alabama,AL,Chilton,US
36790,32.7332,-86.8963,Stanton,Alabama,AL,Chilton,US
36904,32.0829,-88.2064,Butler,Alabama,AL,Choctaw,US
36908,31.8666,-88.3265,Gilbertown,Alabama,AL,Choctaw,US
36910,32.2299,-88.1684,Jachin,Alabama,AL,Choctaw,US
36912,32.2177,-88.3234,Lisman,Alabama,AL,Choctaw,US
36913,31.9304,-88.4589,Melvin,Alabama,AL,Choctaw,US
36915,31.9879,-88.3367,Needham,Alabama,AL,Choctaw,US
36916,32.2094,-88.04899999999999,Pennington,Alabama,AL,Choctaw,US
36919,31.7668,-88.3091,Silas,Alabama,AL,Choctaw,US
36921,31.9155,-88.15100000000001,Toxey,Alabama,AL,Choctaw,US
36922,32.3038,-88.1476,Ward,Alabama,AL,Choctaw,US
36436,31.7635,-87.7106,Dickinson,Alabama,AL,Clarke,US
36446,31.7925,-87.72,Fulton,Alabama,AL,Clarke,US
36451,31.7088,-87.7772,Grove Hill,Alabama,AL,Clarke,US
36482,31.6395,-87.6565,Whatley,Alabama,AL,Clarke,US
36524,31.7843,-88.0715,Coffeeville,Alabama,AL,Clarke,US
36540,31.4258,-87.6822,Gainestown,Alabama,AL,Clarke,US
36545,31.5131,-87.8672,Jackson,Alabama,AL,Clarke,US
36727,31.9213,-88.008,Campbell,Alabama,AL,Clarke,US
36784,31.9067,-87.7598,Thomasville,Alabama,AL,Clarke,US
35082,33.1162,-86.1386,Hollins,Alabama,AL,Clay,US
36251,33.2474,-85.829,Ashland,Alabama,AL,Clay,US
36255,33.2171,-85.7108,Cragford,Alabama,AL,Clay,US
36258,33.4573,-85.6793,Delta,Alabama,AL,Clay,US
36266,33.3286,-85.7346,Lineville,Alabama,AL,Clay,US
36267,33.1915,-85.9258,Millerville,Alabama,AL,Clay,US
36261,33.7066,-85.5099,Edwardsville,Alabama,AL,Cleburne,US
36262,33.7717,-85.4381,Fruithurst,Alabama,AL,Cleburne,US
36264,33.6115,-85.5885,Heflin,Alabama,AL,Cleburne,US
36269,33.7529,-85.3789,Muscadine,Alabama,AL,Cleburne,US
36273,33.5616,-85.3786,Ranburne,Alabama,AL,Cleburne,US
36323,31.4137,-86.0777,Elba,Alabama,AL,Coffee,US
36330,31.3408,-85.8421,Enterprise,Alabama,AL,Coffee,US
36331,31.2978,-85.9036,Enterprise,Alabama,AL,Coffee,US
36346,31.5652,-85.971,Jack,Alabama,AL,Coffee,US
36351,31.369,-85.9404,New Brockton,Alabama,AL,Coffee,US
36453,31.1926,-86.1514,Kinston,Alabama,AL,Coffee,US
35616,34.7442,-87.9724,Cherokee,Alabama,AL,Colbert,US
35646,34.711,-87.5221,Leighton,Alabama,AL,Colbert,US
35660,34.7578,-87.6971,Sheffield,Alabama,AL,Colbert,US
35661,34.7561,-87.6304,Muscle Shoals,Alabama,AL,Colbert,US
35662,34.7448,-87.6675,Muscle Shoals,Alabama,AL,Colbert,US
35674,34.6874,-87.6833,Tuscumbia,Alabama,AL,Colbert,US
36401,31.458000000000002,-86.9258,Evergreen,Alabama,AL,Conecuh,US
36429,31.2627,-86.7711,Brooklyn,Alabama,AL,Conecuh,US
36432,31.2991,-87.0225,Castleberry,Alabama,AL,Conecuh,US
36454,31.3366,-87.1855,Lenox,Alabama,AL,Conecuh,US
36473,31.3058,-87.2137,Range,Alabama,AL,Conecuh,US
36475,31.4256,-87.17200000000001,Repton,Alabama,AL,Conecuh,US
35072,33.0746,-86.0781,Goodwater,Alabama,AL,Coosa,US
35089,32.9791,-86.0484,Kellyton,Alabama,AL,Coosa,US
35136,32.878,-86.24,Rockford,Alabama,AL,Coosa,US
35183,33.0238,-86.3042,Weogufka,Alabama,AL,Coosa,US
36026,32.8139,-86.1051,Equality,Alabama,AL,Coosa,US
36038,31.4068,-86.4841,Gantt,Alabama,AL,Covington,US
36420,31.2971,-86.4905,Andalusia,Alabama,AL,Covington,US
36442,31.0172,-86.3385,Florala,Alabama,AL,Covington,US
36455,31.0105,-86.3497,Lockhart,Alabama,AL,Covington,US
36467,31.2799,-86.2571,Opp,Alabama,AL,Covington,US
36474,31.4399,-86.6121,Red Level,Alabama,AL,Covington,US
36476,31.3533,-86.541,River Falls,Alabama,AL,Covington,US
36483,31.0223,-86.6293,Wing,Alabama,AL,Covington,US
36009,31.570999999999998,-86.2743,Brantley,Alabama,AL,Crenshaw,US
36028,31.5066,-86.3663,Dozier,Alabama,AL,Crenshaw,US
36034,31.6641,-86.171,Glenwood,Alabama,AL,Crenshaw,US
36041,31.9283,-86.2971,Highland Home,Alabama,AL,Crenshaw,US
36042,31.8784,-86.3981,Honoraville,Alabama,AL,Crenshaw,US
36049,31.7074,-86.2566,Luverne,Alabama,AL,Crenshaw,US
36062,31.8488,-86.2077,Petrey,Alabama,AL,Crenshaw,US
36071,31.7062,-86.3715,Rutledge,Alabama,AL,Crenshaw,US
35019,34.2683,-86.6213,Baileyton,Alabama,AL,Cullman,US
35033,33.9737,-87.0043,Bremen,Alabama,AL,Cullman,US
35053,34.0821,-87.0484,Crane Hill,Alabama,AL,Cullman,US
35055,34.1761,-86.8298,Cullman,Alabama,AL,Cullman,US
35056,34.1748,-86.8436,Cullman,Alabama,AL,Cullman,US
35057,34.0878,-86.9447,Cullman,Alabama,AL,Cullman,US
35058,34.2098,-86.75200000000001,Cullman,Alabama,AL,Cullman,US
35070,34.0058,-86.7499,Garden City,Alabama,AL,Cullman,US
35077,34.0516,-86.7848,Hanceville,Alabama,AL,Cullman,US
35083,34.1901,-86.6174,Holly Pond,Alabama,AL,Cullman,US
35087,34.2837,-86.5519,Joppa,Alabama,AL,Cullman,US
35098,34.1377,-87.0266,Logan,Alabama,AL,Cullman,US
35179,34.2621,-86.9125,Vinemont,Alabama,AL,Cullman,US
36311,31.583000000000002,-85.7077,Ariton,Alabama,AL,Dale,US
36317,31.6446,-85.3911,Clopton,Alabama,AL,Dale,US
36322,31.2811,-85.7305,Daleville,Alabama,AL,Dale,US
36350,31.3191,-85.4938,Midland City,Alabama,AL,Dale,US
36352,31.3311,-85.5992,Newton,Alabama,AL,Dale,US
36360,31.4391,-85.6436,Ozark,Alabama,AL,Dale,US
36361,31.4591,-85.6405,Ozark,Alabama,AL,Dale,US
36362,31.348000000000003,-85.7214,Fort Rucker,Alabama,AL,Dale,US
36371,31.3074,-85.5263,Pinckard,Alabama,AL,Dale,US
36374,31.5748,-85.537,Skipperville,Alabama,AL,Dale,US
36701,32.4197,-87.0245,Selma,Alabama,AL,Dallas,US
36702,32.4074,-87.0211,Selma,Alabama,AL,Dallas,US
36703,32.4156,-87.0135,Selma,Alabama,AL,Dallas,US
36758,32.6176,-86.9475,Plantersville,Alabama,AL,Dallas,US
36759,32.4266,-87.2702,Marion Junction,Alabama,AL,Dallas,US
36761,32.1899,-87.0633,Minter,Alabama,AL,Dallas,US
36767,32.2949,-87.2214,Orrville,Alabama,AL,Dallas,US
36773,32.3002,-87.3693,Safford,Alabama,AL,Dallas,US
36775,32.2844,-86.992,Sardis,Alabama,AL,Dallas,US
36785,32.3239,-86.8646,Tyler,Alabama,AL,Dallas,US
35961,34.268,-85.86200000000001,Collinsville,Alabama,AL,DeKalb,US
35962,34.2588,-86.0306,Crossville,Alabama,AL,DeKalb,US
35963,34.3568,-85.9292,Dawson,Alabama,AL,DeKalb,US
35967,34.4368,-85.7124,Fort Payne,Alabama,AL,DeKalb,US
35968,34.4898,-85.7657,Fort Payne,Alabama,AL,DeKalb,US
35971,34.4373,-85.9288,Fyffe,Alabama,AL,DeKalb,US
35974,34.3592,-86.024,Geraldine,Alabama,AL,DeKalb,US
35975,34.4359,-86.04,Groveoak,Alabama,AL,DeKalb,US
35978,34.6186,-85.7274,Henagar,Alabama,AL,DeKalb,US
35981,34.7351,-85.6416,Ider,Alabama,AL,DeKalb,US
35984,34.5872,-85.5777,Mentone,Alabama,AL,DeKalb,US
35986,34.4989,-85.8446,Rainsville,Alabama,AL,DeKalb,US
35988,34.559,-85.7921,Sylvania,Alabama,AL,DeKalb,US
35989,34.5697,-85.6272,Valley Head,Alabama,AL,DeKalb,US
36020,32.5056,-86.3322,Coosada,Alabama,AL,Elmore,US
36022,32.6082,-86.3958,Deatsville,Alabama,AL,Elmore,US
36024,32.6542,-86.0316,Eclectic,Alabama,AL,Elmore,US
36025,32.5454,-86.3161,Elmore,Alabama,AL,Elmore,US
36045,32.619,-85.9486,Kent,Alabama,AL,Elmore,US
36054,32.4995,-86.3641,Millbrook,Alabama,AL,Elmore,US
36078,32.551,-85.8978,Tallassee,Alabama,AL,Elmore,US
36080,32.69,-86.2393,Titus,Alabama,AL,Elmore,US
36092,32.5927,-86.2153,Wetumpka,Alabama,AL,Elmore,US
36093,32.5622,-86.0994,Wetumpka,Alabama,AL,Elmore,US
36426,31.1294,-87.0961,Brewton,Alabama,AL,Escambia,US
36427,31.1052,-87.0722,Brewton,Alabama,AL,Escambia,US
36441,31.0402,-87.2664,Flomaton,Alabama,AL,Escambia,US
36502,31.0572,-87.4873,Atmore,Alabama,AL,Escambia,US
36503,31.0238,-87.4939,Atmore,Alabama,AL,Escambia,US
36504,31.0158,-87.4972,Atmore,Alabama,AL,Escambia,US
36543,31.2202,-87.4619,Huxford,Alabama,AL,Escambia,US
35901,34.048,-85.9246,Gadsden,Alabama,AL,Etowah,US
35902,34.0143,-86.0066,Gadsden,Alabama,AL,Etowah,US
35903,33.9845,-85.9077,Gadsden,Alabama,AL,Etowah,US
35904,34.0217,-86.0495,Gadsden,Alabama,AL,Etowah,US
35905,33.9352,-85.9576,Gadsden,Alabama,AL,Etowah,US
35906,33.9318,-86.0898,Rainbow City,Alabama,AL,Etowah,US
35907,33.8979,-86.0245,Gadsden,Alabama,AL,Etowah,US
35952,34.071,-86.2096,Altoona,Alabama,AL,Etowah,US
35954,34.0296,-86.0967,Attalla,Alabama,AL,Etowah,US
35972,33.9976,-86.2346,Gallant,Alabama,AL,Etowah,US
35990,34.0657,-86.3064,Walnut Grove,Alabama,AL,Etowah,US
35542,33.7008,-87.6897,Bankston,Alabama,AL,Fayette,US
35545,33.6476,-87.9314,Belk,Alabama,AL,Fayette,US
35546,33.6945,-87.6226,Berry,Alabama,AL,Fayette,US
35555,33.6974,-87.8346,Fayette,Alabama,AL,Fayette,US
35559,33.9151,-87.7417,Glen Allen,Alabama,AL,Fayette,US
35571,34.3417,-87.959,Hodges,Alabama,AL,Franklin,US
35581,34.347,-87.7154,Phil Campbell,Alabama,AL,Franklin,US
35582,34.4513,-88.1129,Red Bay,Alabama,AL,Franklin,US
35585,34.4246,-87.8145,Spruce Pine,Alabama,AL,Franklin,US
35593,34.3712,-88.0774,Vina,Alabama,AL,Franklin,US
35653,34.5066,-87.7257,Russellville,Alabama,AL,Franklin,US
35654,34.4675,-87.6478,Russellville,Alabama,AL,Franklin,US
36313,31.1732,-85.7933,Bellwood,Alabama,AL,Geneva,US
36314,31.0132,-85.7456,Black,Alabama,AL,Geneva,US
36316,31.1767,-85.8135,Chancellor,Alabama,AL,Geneva,US
36318,31.1388,-85.9182,Coffee Springs,Alabama,AL,Geneva,US
36340,31.0414,-85.8847,Geneva,Alabama,AL,Geneva,US
36344,31.086,-85.7192,Hartford,Alabama,AL,Geneva,US
36349,31.1212,-85.5592,Malvern,Alabama,AL,Geneva,US
36375,31.0956,-85.583,Slocomb,Alabama,AL,Geneva,US
36477,31.1049,-86.0674,Samson,Alabama,AL,Geneva,US
35443,32.7746,-88.0267,Boligee,Alabama,AL,Greene,US
35448,32.9137,-87.9925,Clinton,Alabama,AL,Greene,US
35462,32.8889,-87.9303,Eutaw,Alabama,AL,Greene,US
35469,32.9824,-87.7919,Knoxville,Alabama,AL,Greene,US
35491,32.9237,-88.0853,West Greene,Alabama,AL,Greene,US
36740,32.6108,-87.8441,Forkland,Alabama,AL,Greene,US
35441,32.8553,-87.7219,Akron,Alabama,AL,Hale,US
35474,32.9108,-87.5935,Moundville,Alabama,AL,Hale,US
36742,32.5298,-87.6985,Gallion,Alabama,AL,Hale,US
36744,32.7167,-87.5905,Greensboro,Alabama,AL,Hale,US
36765,32.5515,-87.5615,Newbern,Alabama,AL,Hale,US
36776,32.7578,-87.7402,Sawyerville,Alabama,AL,Hale,US
36310,31.5755,-85.279,Abbeville,Alabama,AL,Henry,US
36345,31.3534,-85.3323,Headland,Alabama,AL,Henry,US
36353,31.4403,-85.3287,Newville,Alabama,AL,Henry,US
36373,31.500999999999998,-85.1135,Shorterville,Alabama,AL,Henry,US
36301,31.1481,-85.3718,Dothan,Alabama,AL,Houston,US
36302,31.2232,-85.3905,Dothan,Alabama,AL,Houston,US
36303,31.2668,-85.3971,Dothan,Alabama,AL,Houston,US
36304,31.156,-85.3559,Dothan,Alabama,AL,Houston,US
36305,31.2197,-85.4828,Dothan,Alabama,AL,Houston,US
36312,31.1888,-85.2535,Ashford,Alabama,AL,Houston,US
36319,31.3352,-85.1455,Columbia,Alabama,AL,Houston,US
36320,31.0507,-85.3154,Cottonwood,Alabama,AL,Houston,US
36321,31.2025,-85.3014,Cowarts,Alabama,AL,Houston,US
36343,31.1002,-85.1234,Gordon,Alabama,AL,Houston,US
36370,31.1403,-85.1573,Pansey,Alabama,AL,Houston,US
36376,31.2656,-85.2544,Webb,Alabama,AL,Houston,US
35740,34.9446,-85.7277,Bridgeport,Alabama,AL,Jackson,US
35744,34.6046,-85.9067,Dutton,Alabama,AL,Jackson,US
35745,34.913000000000004,-86.1716,Estillfork,Alabama,AL,Jackson,US
35746,34.8259,-85.9846,Fackler,Alabama,AL,Jackson,US
35751,34.7955,-86.2743,Hollytree,Alabama,AL,Jackson,US
35752,34.7304,-85.9532,Hollywood,Alabama,AL,Jackson,US
35755,34.5001,-86.1353,Langston,Alabama,AL,Jackson,US
35764,34.7031,-86.3068,Paint Rock,Alabama,AL,Jackson,US
35765,34.6809,-85.8478,Pisgah,Alabama,AL,Jackson,US
35766,34.8713,-86.2513,Princeton,Alabama,AL,Jackson,US
35768,34.7507,-86.1422,Scottsboro,Alabama,AL,Jackson,US
35769,34.618,-86.0562,Scottsboro,Alabama,AL,Jackson,US
35771,34.5433,-85.994,Section,Alabama,AL,Jackson,US
35772,34.8769,-85.8508,Stevenson,Alabama,AL,Jackson,US
35774,34.7632,-86.2295,Trenton,Alabama,AL,Jackson,US
35776,34.6689,-86.2296,Woodville,Alabama,AL,Jackson,US
35958,34.945,-85.6324,Bryant,Alabama,AL,Jackson,US
35966,34.8076,-85.7084,Flat Rock,Alabama,AL,Jackson,US
35979,34.8391,-85.6196,Higdon,Alabama,AL,Jackson,US
35005,33.5884,-86.9597,Adamsville,Alabama,AL,Jefferson,US
35006,33.4343,-87.1675,Adger,Alabama,AL,Jefferson,US
35015,33.5793,-86.6375,Alton,Alabama,AL,Jefferson,US
35020,33.409,-86.9475,Bessemer,Alabama,AL,Jefferson,US
35021,33.5446,-86.9292,Bessemer,Alabama,AL,Jefferson,US
35022,33.3224,-86.9657,Bessemer,Alabama,AL,Jefferson,US
35023,33.468,-87.0924,Bessemer,Alabama,AL,Jefferson,US
35036,33.6379,-86.9167,Brookside,Alabama,AL,Jefferson,US
35048,33.7026,-86.5997,Clay,Alabama,AL,Jefferson,US
35060,33.5589,-86.9294,Docena,Alabama,AL,Jefferson,US
35061,33.4654,-86.9564,Dolomite,Alabama,AL,Jefferson,US
35064,33.4735,-86.9183,Fairfield,Alabama,AL,Jefferson,US
35068,33.6017,-86.8265,Fultondale,Alabama,AL,Jefferson,US
35071,33.7189,-86.8225,Gardendale,Alabama,AL,Jefferson,US
35073,33.6539,-86.9803,Graysville,Alabama,AL,Jefferson,US
35091,33.7684,-86.8084,Kimberly,Alabama,AL,Jefferson,US
35094,33.5283,-86.5748,Leeds,Alabama,AL,Jefferson,US
35111,33.2845,-87.1024,Mc Calla,Alabama,AL,Jefferson,US
35116,33.7392,-86.7726,Morris,Alabama,AL,Jefferson,US
35117,33.6768,-86.8717,Mount Olive,Alabama,AL,Jefferson,US
35118,33.5363,-87.051,Mulga,Alabama,AL,Jefferson,US
35119,33.649,-86.7686,New Castle,Alabama,AL,Jefferson,US
35123,33.7387,-86.6461,Palmerdale,Alabama,AL,Jefferson,US
35126,33.7299,-86.6451,Pinson,Alabama,AL,Jefferson,US
35127,33.4883,-86.9766,Pleasant Grove,Alabama,AL,Jefferson,US
35139,33.7111,-86.9759,Sayre,Alabama,AL,Jefferson,US
35142,33.4069,-86.8735,Shannon,Alabama,AL,Jefferson,US
35172,33.819,-86.7434,Trafford,Alabama,AL,Jefferson,US
35173,33.6339,-86.5981,Trussville,Alabama,AL,Jefferson,US
35180,33.8529,-86.8198,Warrior,Alabama,AL,Jefferson,US
35181,33.5446,-86.9292,Watson,Alabama,AL,Jefferson,US
35201,33.5207,-86.8025,Birmingham,Alabama,AL,Jefferson,US
35202,33.5207,-86.8025,Birmingham,Alabama,AL,Jefferson,US
35203,33.521,-86.8066,Birmingham,Alabama,AL,Jefferson,US
35204,33.5179,-86.8372,Birmingham,Alabama,AL,Jefferson,US
35205,33.4951,-86.8059,Birmingham,Alabama,AL,Jefferson,US
35206,33.5678,-86.7199,Birmingham,Alabama,AL,Jefferson,US
35207,33.5594,-86.8153,Birmingham,Alabama,AL,Jefferson,US
35208,33.4977,-86.8799,Birmingham,Alabama,AL,Jefferson,US
35209,33.4653,-86.8082,Birmingham,Alabama,AL,Jefferson,US
35210,33.5452,-86.6655,Birmingham,Alabama,AL,Jefferson,US
35211,33.4816,-86.859,Birmingham,Alabama,AL,Jefferson,US
35212,33.5409,-86.7495,Birmingham,Alabama,AL,Jefferson,US
35213,33.5066,-86.7428,Birmingham,Alabama,AL,Jefferson,US
35214,33.5554,-86.887,Birmingham,Alabama,AL,Jefferson,US
35215,33.6493,-86.7057,Birmingham,Alabama,AL,Jefferson,US
35216,33.4188,-86.7867,Birmingham,Alabama,AL,Jefferson,US
35217,33.5887,-86.765,Birmingham,Alabama,AL,Jefferson,US
35218,33.506,-86.89299999999999,Birmingham,Alabama,AL,Jefferson,US
35219,33.5446,-86.9292,Birmingham,Alabama,AL,Jefferson,US
35220,33.5446,-86.9292,Birmingham,Alabama,AL,Jefferson,US
35221,33.4523,-86.8935,Birmingham,Alabama,AL,Jefferson,US
35222,33.5219,-86.7666,Birmingham,Alabama,AL,Jefferson,US
35223,33.4995,-86.7268,Birmingham,Alabama,AL,Jefferson,US
35224,33.5191,-86.9342,Birmingham,Alabama,AL,Jefferson,US
35226,33.3967,-86.8346,Birmingham,Alabama,AL,Jefferson,US
35228,33.4558,-86.9118,Birmingham,Alabama,AL,Jefferson,US
35229,33.4629,-86.7904,Birmingham,Alabama,AL,Jefferson,US
35231,33.5446,-86.9292,Birmingham,Alabama,AL,Jefferson,US
35232,33.5446,-86.9292,Birmingham,Alabama,AL,Jefferson,US
35233,33.5062,-86.8003,Birmingham,Alabama,AL,Jefferson,US
35234,33.5378,-86.8068,Birmingham,Alabama,AL,Jefferson,US
35235,33.6328,-86.6493,Birmingham,Alabama,AL,Jefferson,US
35236,33.5446,-86.9292,Birmingham,Alabama,AL,Jefferson,US
35237,33.5207,-86.8025,Birmingham,Alabama,AL,Jefferson,US
35238,33.5446,-86.9292,Birmingham,Alabama,AL,Jefferson,US
35243,33.4459,-86.7502,Birmingham,Alabama,AL,Jefferson,US
35244,33.3538,-86.8254,Birmingham,Alabama,AL,Jefferson,US
35246,33.5207,-86.8025,Birmingham,Alabama,AL,Jefferson,US
35249,33.5207,-86.8025,Birmingham,Alabama,AL,Jefferson,US
35253,33.5446,-86.9292,Birmingham,Alabama,AL,Jefferson,US
35254,33.5446,-86.9292,Birmingham,Alabama,AL,Jefferson,US
35255,33.5446,-86.9292,Birmingham,Alabama,AL,Jefferson,US
35259,33.5446,-86.9292,Birmingham,Alabama,AL,Jefferson,US
35260,33.5446,-86.9292,Birmingham,Alabama,AL,Jefferson,US
35261,33.5446,-86.9292,Birmingham,Alabama,AL,Jefferson,US
35266,33.3729,-86.8531,Birmingham,Alabama,AL,Jefferson,US
35270,33.5206,-86.8025,Birmingham,Alabama,AL,Jefferson,US
35282,33.5446,-86.9292,Birmingham,Alabama,AL,Jefferson,US
35283,33.5207,-86.8025,Birmingham,Alabama,AL,Jefferson,US
35285,33.5446,-86.9292,Birmingham,Alabama,AL,Jefferson,US
35287,33.5207,-86.8025,Birmingham,Alabama,AL,Jefferson,US
35288,33.4458,-86.9285,Birmingham,Alabama,AL,Jefferson,US
35290,33.5446,-86.9292,Birmingham,Alabama,AL,Jefferson,US
35291,33.5207,-86.8025,Birmingham,Alabama,AL,Jefferson,US
35292,33.5207,-86.8025,Birmingham,Alabama,AL,Jefferson,US
35293,33.5446,-86.9292,Birmingham,Alabama,AL,Jefferson,US
35294,33.5446,-86.9292,Birmingham,Alabama,AL,Jefferson,US
35295,33.5207,-86.8025,Birmingham,Alabama,AL,Jefferson,US
35296,33.5446,-86.9292,Birmingham,Alabama,AL,Jefferson,US
35297,33.5446,-86.9292,Birmingham,Alabama,AL,Jefferson,US
35298,33.5446,-86.9292,Birmingham,Alabama,AL,Jefferson,US
35544,33.9429,-88.0157,Beaverton,Alabama,AL,Lamar,US
35552,34.0282,-88.17,Detroit,Alabama,AL,Lamar,US
35574,33.6153,-87.9948,Kennedy,Alabama,AL,Lamar,US
35576,33.5401,-88.2,Millport,Alabama,AL,Lamar,US
35586,33.8549,-88.1508,Sulligent,Alabama,AL,Lamar,US
35592,33.7613,-88.0979,Vernon,Alabama,AL,Lamar,US
35610,34.9424,-87.2734,Anderson,Alabama,AL,Lauderdale,US
35617,34.9387,-87.7714,Cloverdale,Alabama,AL,Lauderdale,US
35630,34.8305,-87.656,Florence,Alabama,AL,Lauderdale,US
35631,34.87,-87.7069,Florence,Alabama,AL,Lauderdale,US
35632,34.87,-87.7069,Florence,Alabama,AL,Lauderdale,US
35633,34.8825,-87.7398,Florence,Alabama,AL,Lauderdale,US
35634,34.9186,-87.6136,Florence,Alabama,AL,Lauderdale,US
35645,34.9016,-87.5082,Killen,Alabama,AL,Lauderdale,US
35648,34.9559,-87.3935,Lexington,Alabama,AL,Lauderdale,US
35652,34.8495,-87.3237,Rogersville,Alabama,AL,Lauderdale,US
35677,34.9357,-87.9624,Waterloo,Alabama,AL,Lauderdale,US
35618,34.6719,-87.3143,Courtland,Alabama,AL,Lawrence,US
35643,34.6476,-87.1804,Hillsboro,Alabama,AL,Lawrence,US
35650,34.5058,-87.2224,Moulton,Alabama,AL,Lawrence,US
35651,34.4793,-87.4769,Mount Hope,Alabama,AL,Lawrence,US
35672,34.6491,-87.4262,Town Creek,Alabama,AL,Lawrence,US
36801,32.6454,-85.3783,Opelika,Alabama,AL,Lee,US
36802,32.5782,-85.34899999999999,Opelika,Alabama,AL,Lee,US
36803,32.6454,-85.3783,Opelika,Alabama,AL,Lee,US
36804,32.5768,-85.31200000000001,Opelika,Alabama,AL,Lee,US
36830,32.5475,-85.4682,Auburn,Alabama,AL,Lee,US
36831,32.6099,-85.4808,Auburn,Alabama,AL,Lee,US
36832,32.592,-85.5189,Auburn,Alabama,AL,Lee,US
36849,32.6024,-85.4873,Auburn University,Alabama,AL,Lee,US
36865,32.6043,-85.5933,Loachapoka,Alabama,AL,Lee,US
36872,32.5782,-85.34899999999999,Valley,Alabama,AL,Lee,US
36874,32.6212,-85.184,Salem,Alabama,AL,Lee,US
36877,32.5401,-85.0985,Smiths Station,Alabama,AL,Lee,US
36879,32.7632,-85.5144,Waverly,Alabama,AL,Lee,US
35611,34.8036,-86.9707,Athens,Alabama,AL,Limestone,US
35612,34.7749,-87.0305,Athens,Alabama,AL,Limestone,US
35613,34.8317,-86.8867,Athens,Alabama,AL,Limestone,US
35614,34.8474,-87.0607,Athens,Alabama,AL,Limestone,US
35615,34.6568,-86.8792,Belle Mina,Alabama,AL,Limestone,US
35620,34.929,-86.9739,Elkmont,Alabama,AL,Limestone,US
35647,34.9596,-87.1006,Lester,Alabama,AL,Limestone,US
35649,34.6259,-86.8746,Mooresville,Alabama,AL,Limestone,US
35671,34.6796,-86.9625,Tanner,Alabama,AL,Limestone,US
35739,34.9804,-86.8346,Ardmore,Alabama,AL,Limestone,US
35742,34.7731,-86.7928,Capshaw,Alabama,AL,Limestone,US
36032,31.996,-86.5761,Fort Deposit,Alabama,AL,Lowndes,US
36040,32.1957,-86.655,Hayneville,Alabama,AL,Lowndes,US
36047,32.0862,-86.488,Letohatchee,Alabama,AL,Lowndes,US
36752,32.2943,-86.6471,Lowndesboro,Alabama,AL,Lowndes,US
36031,32.2507,-85.7524,Fort Davis,Alabama,AL,Macon,US
36039,32.3129,-85.8838,Hardaway,Alabama,AL,Macon,US
36075,32.3836,-85.9162,Shorter,Alabama,AL,Macon,US
36083,32.4316,-85.6861,Tuskegee,Alabama,AL,Macon,US
36087,32.4093,-85.738,Tuskegee Institute,Alabama,AL,Macon,US
36088,32.4145,-85.7253,Tuskegee Institute,Alabama,AL,Macon,US
36866,32.5437,-85.6871,Notasulga,Alabama,AL,Macon,US
35741,34.7167,-86.4687,Brownsboro,Alabama,AL,Madison,US
35748,34.714,-86.39399999999999,Gurley,Alabama,AL,Madison,US
35749,34.8273,-86.7499,Harvest,Alabama,AL,Madison,US
35750,34.9496,-86.5935,Hazel Green,Alabama,AL,Madison,US
35756,34.643,-86.8168,Madison,Alabama,AL,Madison,US
35757,34.7782,-86.7442,Madison,Alabama,AL,Madison,US
35758,34.7108,-86.7425,Madison,Alabama,AL,Madison,US
35759,34.8618,-86.5789,Meridianville,Alabama,AL,Madison,US
35760,34.5494,-86.3961,New Hope,Alabama,AL,Madison,US
35761,34.9,-86.4487,New Market,Alabama,AL,Madison,US
35762,34.789,-86.5719,Normal,Alabama,AL,Madison,US
35763,34.6215,-86.4644,Owens Cross Roads,Alabama,AL,Madison,US
35767,34.7698,-86.4808,Ryland,Alabama,AL,Madison,US
35773,34.9116,-86.7,Toney,Alabama,AL,Madison,US
35801,34.7269,-86.5673,Huntsville,Alabama,AL,Madison,US
35802,34.6679,-86.5603,Huntsville,Alabama,AL,Madison,US
35803,34.6205,-86.551,Huntsville,Alabama,AL,Madison,US
35804,34.7284,-86.5853,Huntsville,Alabama,AL,Madison,US
35805,34.7059,-86.6165,Huntsville,Alabama,AL,Madison,US
35806,34.7448,-86.6704,Huntsville,Alabama,AL,Madison,US
35807,34.734,-86.5229,Huntsville,Alabama,AL,Madison,US
35808,34.6845,-86.6538,Huntsville,Alabama,AL,Madison,US
35809,34.734,-86.5229,Huntsville,Alabama,AL,Madison,US
35810,34.7784,-86.6091,Huntsville,Alabama,AL,Madison,US
35811,34.7789,-86.5438,Huntsville,Alabama,AL,Madison,US
35812,34.734,-86.5229,Huntsville,Alabama,AL,Madison,US
35813,34.734,-86.5229,Huntsville,Alabama,AL,Madison,US
35814,34.734,-86.5229,Huntsville,Alabama,AL,Madison,US
35815,34.734,-86.5229,Huntsville,Alabama,AL,Madison,US
35816,34.7389,-86.6249,Huntsville,Alabama,AL,Madison,US
35824,34.6583,-86.7295,Huntsville,Alabama,AL,Madison,US
35893,34.7304,-86.5861,Huntsville,Alabama,AL,Madison,US
35894,34.734,-86.5229,Huntsville,Alabama,AL,Madison,US
35895,34.7304,-86.5861,Huntsville,Alabama,AL,Madison,US
35896,34.7543,-86.6546,Huntsville,Alabama,AL,Madison,US
35897,34.734,-86.5229,Huntsville,Alabama,AL,Madison,US
35898,34.734,-86.5229,Huntsville,Alabama,AL,Madison,US
35899,34.7339,-86.6456,Huntsville,Alabama,AL,Madison,US
36732,32.4908,-87.8397,Demopolis,Alabama,AL,Marengo,US
36736,32.0672,-87.7454,Dixons Mills,Alabama,AL,Marengo,US
36738,32.4233,-87.6181,Faunsdale,Alabama,AL,Marengo,US
36745,32.414,-87.8986,Jefferson,Alabama,AL,Marengo,US
36748,32.3053,-87.7954,Linden,Alabama,AL,Marengo,US
36754,32.1419,-87.6998,Magnolia,Alabama,AL,Marengo,US
36763,32.2516,-87.9494,Myrtlewood,Alabama,AL,Marengo,US
36764,32.1129,-87.9881,Nanafalia,Alabama,AL,Marengo,US
36782,32.0773,-87.9228,Sweet Water,Alabama,AL,Marengo,US
36783,32.2538,-87.5974,Thomaston,Alabama,AL,Marengo,US
35543,34.1649,-87.7396,Bear Creek,Alabama,AL,Marion,US
35548,34.0377,-87.7563,Brilliant,Alabama,AL,Marion,US
35563,33.9676,-87.9024,Guin,Alabama,AL,Marion,US
35564,34.2678,-87.8608,Hackleburg,Alabama,AL,Marion,US
35570,34.1534,-88.0085,Hamilton,Alabama,AL,Marion,US
35594,33.9303,-87.7972,Winfield,Alabama,AL,Marion,US
35016,34.3283,-86.4896,Arab,Alabama,AL,Marshall,US
35175,34.4093,-86.4628,Union Grove,Alabama,AL,Marshall,US
35747,34.4959,-86.259,Grant,Alabama,AL,Marshall,US
35950,34.2739,-86.2064,Albertville,Alabama,AL,Marshall,US
35951,34.3223,-86.1935,Albertville,Alabama,AL,Marshall,US
35956,34.1437,-86.148,Boaz,Alabama,AL,Marshall,US
35957,34.1921,-86.1941,Boaz,Alabama,AL,Marshall,US
35964,34.1737,-86.3236,Douglas,Alabama,AL,Marshall,US
35976,34.3449,-86.2752,Guntersville,Alabama,AL,Marshall,US
35980,34.19,-86.3173,Horton,Alabama,AL,Marshall,US
36421,31.3247,-86.5067,Andalusia,Alabama,AL,Mobile,US
36505,30.9394,-88.0159,Axis,Alabama,AL,Mobile,US
36509,30.408,-88.2507,Bayou La Batre,Alabama,AL,Mobile,US
36512,31.0105,-88.0242,Bucks,Alabama,AL,Mobile,US
36521,30.9912,-88.1311,Chunchula,Alabama,AL,Mobile,US
36522,31.0425,-88.2549,Citronelle,Alabama,AL,Mobile,US
36523,30.3903,-88.2076,Coden,Alabama,AL,Mobile,US
36525,30.9013,-88.0174,Creola,Alabama,AL,Mobile,US
36528,30.2521,-88.1096,Dauphin Island,Alabama,AL,Mobile,US
36541,30.4983,-88.3282,Grand Bay,Alabama,AL,Mobile,US
36544,30.4802,-88.2396,Irvington,Alabama,AL,Mobile,US
36560,31.0974,-88.035,Mount Vernon,Alabama,AL,Mobile,US
36568,30.5035,-88.2542,Saint Elmo,Alabama,AL,Mobile,US
36571,30.8332,-88.0934,Saraland,Alabama,AL,Mobile,US
36572,30.8516,-88.0533,Satsuma,Alabama,AL,Mobile,US
36575,30.7544,-88.2667,Semmes,Alabama,AL,Mobile,US
36582,30.5444,-88.1807,Theodore,Alabama,AL,Mobile,US
36587,30.8137,-88.3332,Wilmer,Alabama,AL,Mobile,US
36590,30.488000000000003,-88.2533,Theodore,Alabama,AL,Mobile,US
36601,30.6944,-88.0431,Mobile,Alabama,AL,Mobile,US
36602,30.6888,-88.0453,Mobile,Alabama,AL,Mobile,US
36603,30.6921,-88.0562,Mobile,Alabama,AL,Mobile,US
36604,30.682,-88.0678,Mobile,Alabama,AL,Mobile,US
36605,30.6341,-88.0846,Mobile,Alabama,AL,Mobile,US
36606,30.6729,-88.1009,Mobile,Alabama,AL,Mobile,US
36607,30.6975,-88.1029,Mobile,Alabama,AL,Mobile,US
36608,30.6817,-88.2945,Mobile,Alabama,AL,Mobile,US
36609,30.6605,-88.1618,Mobile,Alabama,AL,Mobile,US
36610,30.7309,-88.0789,Mobile,Alabama,AL,Mobile,US
36611,30.7705,-88.0781,Mobile,Alabama,AL,Mobile,US
36612,30.7518,-88.1131,Mobile,Alabama,AL,Mobile,US
36613,30.7951,-88.1823,Eight Mile,Alabama,AL,Mobile,US
36615,30.6411,-88.0622,Mobile,Alabama,AL,Mobile,US
36616,30.671,-88.1267,Mobile,Alabama,AL,Mobile,US
36617,30.7145,-88.0918,Mobile,Alabama,AL,Mobile,US
36618,30.7322,-88.1758,Mobile,Alabama,AL,Mobile,US
36619,30.5928,-88.1946,Mobile,Alabama,AL,Mobile,US
36628,30.6944,-88.0431,Mobile,Alabama,AL,Mobile,US
36633,30.6589,-88.178,Mobile,Alabama,AL,Mobile,US
36640,30.6589,-88.178,Mobile,Alabama,AL,Mobile,US
36641,30.6589,-88.178,Mobile,Alabama,AL,Mobile,US
36644,30.6944,-88.0431,Mobile,Alabama,AL,Mobile,US
36652,30.6944,-88.0431,Mobile,Alabama,AL,Mobile,US
36660,30.6589,-88.178,Mobile,Alabama,AL,Mobile,US
36663,30.6944,-88.0431,Mobile,Alabama,AL,Mobile,US
36670,30.6589,-88.178,Mobile,Alabama,AL,Mobile,US
36671,30.6589,-88.178,Mobile,Alabama,AL,Mobile,US
36675,30.6944,-88.0431,Mobile,Alabama,AL,Mobile,US
36685,30.6589,-88.178,Mobile,Alabama,AL,Mobile,US
36688,30.6962,-88.1821,Mobile,Alabama,AL,Mobile,US
36689,30.6589,-88.178,Mobile,Alabama,AL,Mobile,US
36691,30.6944,-88.0431,Mobile,Alabama,AL,Mobile,US
36693,30.6311,-88.1588,Mobile,Alabama,AL,Mobile,US
36695,30.6474,-88.2292,Mobile,Alabama,AL,Mobile,US
36425,31.7273,-87.1719,Beatrice,Alabama,AL,Monroe,US
36439,31.4279,-87.3414,Excel,Alabama,AL,Monroe,US
36444,31.7238,-87.4412,Franklin,Alabama,AL,Monroe,US
36445,31.4235,-87.3817,Frisco City,Alabama,AL,Monroe,US
36449,31.3368,-87.4258,Goodway,Alabama,AL,Monroe,US
36457,31.3612,-87.4353,Megargel,Alabama,AL,Monroe,US
36458,31.5147,-87.4084,Mexia,Alabama,AL,Monroe,US
36460,31.5153,-87.34100000000001,Monroeville,Alabama,AL,Monroe,US
36461,31.5221,-87.3411,Monroeville,Alabama,AL,Monroe,US
36470,31.5141,-87.4933,Perdue Hill,Alabama,AL,Monroe,US
36471,31.59,-87.26,Peterman,Alabama,AL,Monroe,US
36480,31.3135,-87.5705,Uriah,Alabama,AL,Monroe,US
36481,31.8085,-87.3164,Vredenburgh,Alabama,AL,Monroe,US
36013,32.2937,-85.9827,Cecil,Alabama,AL,Montgomery,US
36036,32.0194,-86.1292,Grady,Alabama,AL,Montgomery,US
36043,32.2243,-86.3932,Hope Hull,Alabama,AL,Montgomery,US
36046,31.9657,-86.2844,Lapine,Alabama,AL,Montgomery,US
36052,32.1283,-86.0413,Mathews,Alabama,AL,Montgomery,US
36057,32.2334,-86.2085,Mount Meigs,Alabama,AL,Montgomery,US
36064,32.3357,-86.0959,Pike Road,Alabama,AL,Montgomery,US
36065,32.0726,-86.0606,Pine Level,Alabama,AL,Montgomery,US
36069,32.0677,-86.2463,Ramer,Alabama,AL,Montgomery,US
36101,32.357,-86.2578,Montgomery,Alabama,AL,Montgomery,US
36102,32.2334,-86.2085,Montgomery,Alabama,AL,Montgomery,US
36103,32.3462,-86.2873,Montgomery,Alabama,AL,Montgomery,US
36104,32.373000000000005,-86.3081,Montgomery,Alabama,AL,Montgomery,US
36105,32.3257,-86.3104,Montgomery,Alabama,AL,Montgomery,US
36106,32.3543,-86.2673,Montgomery,Alabama,AL,Montgomery,US
36107,32.3804,-86.2799,Montgomery,Alabama,AL,Montgomery,US
36108,32.3417,-86.3529,Montgomery,Alabama,AL,Montgomery,US
36109,32.3834,-86.2434,Montgomery,Alabama,AL,Montgomery,US
36110,32.4217,-86.275,Montgomery,Alabama,AL,Montgomery,US
36111,32.3374,-86.2715,Montgomery,Alabama,AL,Montgomery,US
36112,32.3808,-86.3491,Montgomery,Alabama,AL,Montgomery,US
36113,32.3846,-86.3039,Montgomery,Alabama,AL,Montgomery,US
36114,32.404,-86.2539,Montgomery,Alabama,AL,Montgomery,US
36115,32.4076,-86.2474,Montgomery,Alabama,AL,Montgomery,US
36116,32.3129,-86.2421,Montgomery,Alabama,AL,Montgomery,US
36117,32.3736,-86.1833,Montgomery,Alabama,AL,Montgomery,US
36118,32.2334,-86.2085,Montgomery,Alabama,AL,Montgomery,US
36119,32.2334,-86.2085,Montgomery,Alabama,AL,Montgomery,US
36120,32.2334,-86.2085,Montgomery,Alabama,AL,Montgomery,US
36121,32.2334,-86.2085,Montgomery,Alabama,AL,Montgomery,US
36123,32.3668,-86.3,Montgomery,Alabama,AL,Montgomery,US
36124,32.2334,-86.2085,Montgomery,Alabama,AL,Montgomery,US
36125,32.2334,-86.2085,Montgomery,Alabama,AL,Montgomery,US
36130,32.2334,-86.2085,Montgomery,Alabama,AL,Montgomery,US
36131,32.2334,-86.2085,Montgomery,Alabama,AL,Montgomery,US
36132,32.2334,-86.2085,Montgomery,Alabama,AL,Montgomery,US
36135,32.2334,-86.2085,Montgomery,Alabama,AL,Montgomery,US
36140,32.2334,-86.2085,Montgomery,Alabama,AL,Montgomery,US
36141,32.2334,-86.2085,Montgomery,Alabama,AL,Montgomery,US
36142,32.2334,-86.2085,Montgomery,Alabama,AL,Montgomery,US
36177,32.2334,-86.2085,Montgomery,Alabama,AL,Montgomery,US
36191,32.2334,-86.2085,Montgomery,Alabama,AL,Montgomery,US
35601,34.5896,-86.9887,Decatur,Alabama,AL,Morgan,US
35602,34.6059,-86.9833,Decatur,Alabama,AL,Morgan,US
35603,34.5484,-87.0004,Decatur,Alabama,AL,Morgan,US
35609,34.6059,-86.9833,Decatur,Alabama,AL,Morgan,US
35619,34.3873,-87.1454,Danville,Alabama,AL,Morgan,US
35621,34.3323,-86.7589,Eva,Alabama,AL,Morgan,US
35622,34.3477,-86.9131,Falkville,Alabama,AL,Morgan,US
35640,34.4482,-86.9242,Hartselle,Alabama,AL,Morgan,US
35670,34.4995,-86.8009,Somerville,Alabama,AL,Morgan,US
35673,34.5918,-87.0913,Trinity,Alabama,AL,Morgan,US
35699,34.6059,-86.9833,Decatur,Alabama,AL,Morgan,US
35754,34.4996,-86.6129,Laceys Spring,Alabama,AL,Morgan,US
35775,34.542,-86.6871,Valhermoso Springs,Alabama,AL,Morgan,US
36756,32.6463,-87.3314,Marion,Alabama,AL,Perry,US
36786,32.446999999999996,-87.4934,Uniontown,Alabama,AL,Perry,US
35442,33.1228,-88.1667,Aliceville,Alabama,AL,Pickens,US
35447,33.2485,-88.1321,Carrollton,Alabama,AL,Pickens,US
35461,33.4157,-88.2167,Ethelsville,Alabama,AL,Pickens,US
35466,33.3469,-87.9005,Gordo,Alabama,AL,Pickens,US
35471,33.2626,-88.0885,Mc Shan,Alabama,AL,Pickens,US
35481,33.3959,-88.0203,Reform,Alabama,AL,Pickens,US
36005,31.8368,-85.7998,Banks,Alabama,AL,Pike,US
36010,31.7013,-85.8177,Brundidge,Alabama,AL,Pike,US
36035,31.7946,-86.1277,Goshen,Alabama,AL,Pike,US
36079,31.7595,-86.0107,Troy,Alabama,AL,Pike,US
36081,31.7945,-85.9655,Troy,Alabama,AL,Pike,US
36082,31.8028,-85.9546,Troy,Alabama,AL,Pike,US
36263,33.463,-85.334,Graham,Alabama,AL,Randolph,US
36274,33.1512,-85.3722,Roanoke,Alabama,AL,Randolph,US
36276,33.1492,-85.5513,Wadley,Alabama,AL,Randolph,US
36278,33.3019,-85.4737,Wedowee,Alabama,AL,Randolph,US
36280,33.3743,-85.3997,Woodland,Alabama,AL,Randolph,US
36851,32.1468,-85.0738,Cottonton,Alabama,AL,Russell,US
36856,32.2965,-84.9972,Fort Mitchell,Alabama,AL,Russell,US
36858,32.2845,-85.3029,Hatchechubbee,Alabama,AL,Russell,US
36859,32.2298,-85.0082,Holy Trinity,Alabama,AL,Russell,US
36860,32.2454,-85.3959,Hurtsboro,Alabama,AL,Russell,US
36867,32.4978,-85.0234,Phenix City,Alabama,AL,Russell,US
36868,32.4646,-85.0206,Phenix City,Alabama,AL,Russell,US
36869,32.4204,-85.0796,Phenix City,Alabama,AL,Russell,US
36870,32.4781,-85.124,Phenix City,Alabama,AL,Russell,US
36871,32.1733,-85.1312,Pittsview,Alabama,AL,Russell,US
36875,32.3053,-85.1677,Seale,Alabama,AL,Russell,US
35004,33.6035,-86.4668,Moody,Alabama,AL,St. Clair,US
35052,33.5895,-86.3923,Cook Springs,Alabama,AL,St. Clair,US
35054,33.5296,-86.3007,Cropwell,Alabama,AL,St. Clair,US
35112,33.6862,-86.475,Margaret,Alabama,AL,St. Clair,US
35120,33.6756,-86.40899999999999,Odenville,Alabama,AL,St. Clair,US
35125,33.5979,-86.3432,Pell City,Alabama,AL,St. Clair,US
35128,33.5873,-86.3366,Pell City,Alabama,AL,St. Clair,US
35131,33.7367,-86.1619,Ragland,Alabama,AL,St. Clair,US
35135,33.6166,-86.1996,Riverside,Alabama,AL,St. Clair,US
35146,33.7386,-86.4394,Springville,Alabama,AL,St. Clair,US
35182,33.7068,-86.2567,Wattsville,Alabama,AL,St. Clair,US
35953,33.8374,-86.2552,Ashville,Alabama,AL,St. Clair,US
35987,33.9417,-86.2289,Steele,Alabama,AL,St. Clair,US
35007,33.1934,-86.7944,Alabaster,Alabama,AL,Shelby,US
35040,33.1098,-86.756,Calera,Alabama,AL,Shelby,US
35043,33.2982,-86.6563,Chelsea,Alabama,AL,Shelby,US
35051,33.177,-86.6161,Columbiana,Alabama,AL,Shelby,US
35078,33.3234,-86.4424,Harpersville,Alabama,AL,Shelby,US
35080,33.2663,-86.902,Helena,Alabama,AL,Shelby,US
35114,33.2317,-86.8727,Maylene,Alabama,AL,Shelby,US
35115,33.1248,-86.8622,Montevallo,Alabama,AL,Shelby,US
35124,33.2932,-86.76799999999999,Pelham,Alabama,AL,Shelby,US
35137,33.2063,-86.7812,Saginaw,Alabama,AL,Shelby,US
35143,33.0785,-86.5536,Shelby,Alabama,AL,Shelby,US
35144,33.2293,-86.825,Siluria,Alabama,AL,Shelby,US
35147,33.4461,-86.4917,Sterrett,Alabama,AL,Shelby,US
35176,33.4807,-86.5013,Vandiver,Alabama,AL,Shelby,US
35178,33.400999999999996,-86.3994,Vincent,Alabama,AL,Shelby,US
35185,33.3356,-86.5437,Westover,Alabama,AL,Shelby,US
35186,33.2293,-86.5299,Wilsonville,Alabama,AL,Shelby,US
35187,33.080999999999996,-86.8793,Wilton,Alabama,AL,Shelby,US
35242,33.3813,-86.7046,Birmingham,Alabama,AL,Shelby,US
35459,32.755,-88.3057,Emelle,Alabama,AL,Sumter,US
35460,32.672,-88.1206,Epes,Alabama,AL,Sumter,US
35464,32.821,-88.1589,Gainesville,Alabama,AL,Sumter,US
35470,32.5843,-88.1872,Livingston,Alabama,AL,Sumter,US
35477,32.8726,-88.2374,Panola,Alabama,AL,Sumter,US
36901,32.449,-88.1336,Bellamy,Alabama,AL,Sumter,US
36907,32.411,-88.3611,Cuba,Alabama,AL,Sumter,US
36925,32.4728,-88.2683,York,Alabama,AL,Sumter,US
35014,33.404,-86.2339,Alpine,Alabama,AL,Talladega,US
35032,33.2649,-86.3364,Bon Air,Alabama,AL,Talladega,US
35044,33.2459,-86.3641,Childersburg,Alabama,AL,Talladega,US
35096,33.6059,-86.1112,Lincoln,Alabama,AL,Talladega,US
35149,33.2512,-86.2025,Sycamore,Alabama,AL,Talladega,US
35150,33.1717,-86.2713,Sylacauga,Alabama,AL,Talladega,US
35151,33.1756,-86.3574,Sylacauga,Alabama,AL,Talladega,US
35160,33.4354,-86.1134,Talladega,Alabama,AL,Talladega,US
35161,33.4202,-86.1028,Talladega,Alabama,AL,Talladega,US
36268,33.541,-85.9363,Munford,Alabama,AL,Talladega,US
35010,32.9164,-85.9368,Alexander City,Alabama,AL,Tallapoosa,US
35011,32.9902,-85.958,Alexander City,Alabama,AL,Tallapoosa,US
36023,32.8002,-85.8034,East Tallassee,Alabama,AL,Tallapoosa,US
36256,33.0335,-85.7538,Daviston,Alabama,AL,Tallapoosa,US
36850,32.7827,-85.6474,Camp Hill,Alabama,AL,Tallapoosa,US
36853,32.8224,-85.7704,Dadeville,Alabama,AL,Tallapoosa,US
36861,32.8797,-85.8487,Jacksons Gap,Alabama,AL,Tallapoosa,US
35401,33.1969,-87.5627,Tuscaloosa,Alabama,AL,Tuscaloosa,US
35402,33.3066,-87.4532,Tuscaloosa,Alabama,AL,Tuscaloosa,US
35403,33.2045,-87.527,Tuscaloosa,Alabama,AL,Tuscaloosa,US
35404,33.1826,-87.4827,Tuscaloosa,Alabama,AL,Tuscaloosa,US
35405,33.1617,-87.5144,Tuscaloosa,Alabama,AL,Tuscaloosa,US
35406,33.2722,-87.536,Tuscaloosa,Alabama,AL,Tuscaloosa,US
35407,33.3066,-87.4532,Tuscaloosa,Alabama,AL,Tuscaloosa,US
35440,33.311,-87.1898,Abernant,Alabama,AL,Tuscaloosa,US
35444,33.2775,-87.309,Brookwood,Alabama,AL,Tuscaloosa,US
35446,33.2306,-87.7547,Buhl,Alabama,AL,Tuscaloosa,US
35449,33.1359,-87.3384,Coaling,Alabama,AL,Tuscaloosa,US
35452,33.2934,-87.6888,Coker,Alabama,AL,Tuscaloosa,US
35453,33.1767,-87.3871,Cottondale,Alabama,AL,Tuscaloosa,US
35456,33.0618,-87.4422,Duncanville,Alabama,AL,Tuscaloosa,US
35457,33.294000000000004,-87.7766,Echola,Alabama,AL,Tuscaloosa,US
35458,33.2562,-87.7922,Elrod,Alabama,AL,Tuscaloosa,US
35463,33.0843,-87.6975,Fosters,Alabama,AL,Tuscaloosa,US
35468,33.3407,-87.3047,Kellerman,Alabama,AL,Tuscaloosa,US
35473,33.2723,-87.5825,Northport,Alabama,AL,Tuscaloosa,US
35475,33.3992,-87.5599,Northport,Alabama,AL,Tuscaloosa,US
35476,33.2273,-87.5943,Northport,Alabama,AL,Tuscaloosa,US
35478,33.3066,-87.4532,Peterson,Alabama,AL,Tuscaloosa,US
35480,33.1274,-87.7624,Ralph,Alabama,AL,Tuscaloosa,US
35482,33.3066,-87.4532,Samantha,Alabama,AL,Tuscaloosa,US
35486,33.2098,-87.5692,Tuscaloosa,Alabama,AL,Tuscaloosa,US
35487,33.3072,-87.5859,Tuscaloosa,Alabama,AL,Tuscaloosa,US
35490,33.175,-87.2574,Vance,Alabama,AL,Tuscaloosa,US
35038,33.7079,-87.0875,Burnwell,Alabama,AL,Walker,US
35062,33.7357,-87.0546,Dora,Alabama,AL,Walker,US
35063,33.8256,-87.0161,Empire,Alabama,AL,Walker,US
35130,33.6561,-87.1007,Quinton,Alabama,AL,Walker,US
35148,33.768,-87.0445,Sumiton,Alabama,AL,Walker,US
35501,33.8312,-87.2775,Jasper,Alabama,AL,Walker,US
35502,33.8312,-87.2775,Jasper,Alabama,AL,Walker,US
35503,33.9152,-87.3074,Jasper,Alabama,AL,Walker,US
35504,33.8927,-87.1667,Jasper,Alabama,AL,Walker,US
35549,33.9093,-87.5403,Carbon Hill,Alabama,AL,Walker,US
35550,33.768,-87.1841,Cordova,Alabama,AL,Walker,US
35554,33.9315,-87.6194,Eldridge,Alabama,AL,Walker,US
35560,33.6795,-87.2374,Goodsprings,Alabama,AL,Walker,US
35573,33.9018,-87.552,Kansas,Alabama,AL,Walker,US
35578,33.9299,-87.4324,Nauvoo,Alabama,AL,Walker,US
35579,33.7002,-87.3686,Oakman,Alabama,AL,Walker,US
35580,33.7213,-87.2658,Parrish,Alabama,AL,Walker,US
35584,33.8201,-87.0779,Sipsey,Alabama,AL,Walker,US
35587,33.847,-87.4372,Townley,Alabama,AL,Walker,US
36513,31.1552,-88.01,Calvert,Alabama,AL,Washington,US
36518,31.4876,-88.2699,Chatom,Alabama,AL,Washington,US
36529,31.2168,-88.3172,Deer Park,Alabama,AL,Washington,US
36538,31.6468,-88.1332,Frankville,Alabama,AL,Washington,US
36539,31.3488,-88.3766,Fruitdale,Alabama,AL,Washington,US
36548,31.491,-87.9687,Leroy,Alabama,AL,Washington,US
36553,31.2361,-88.0511,Mc Intosh,Alabama,AL,Washington,US
36556,31.1913,-88.0075,Malcolm,Alabama,AL,Washington,US
36558,31.6269,-88.3559,Millry,Alabama,AL,Washington,US
36569,31.533,-88.0521,Saint Stephens,Alabama,AL,Washington,US
36581,31.3696,-88.0122,Sunflower,Alabama,AL,Washington,US
36583,31.4067,-88.1758,Tibbie,Alabama,AL,Washington,US
36584,31.2584,-88.3865,Vinegar Bend,Alabama,AL,Washington,US
36585,31.4102,-88.0705,Wagarville,Alabama,AL,Washington,US
36435,31.8889,-87.3926,Coy,Alabama,AL,Wilcox,US
36720,32.1585,-87.3468,Alberta,Alabama,AL,Wilcox,US
36722,32.0668,-87.5597,Arlington,Alabama,AL,Wilcox,US
36723,32.0779,-87.2814,Boykin,Alabama,AL,Wilcox,US
36726,32.0047,-87.295,Camden,Alabama,AL,Wilcox,US
36728,32.181999999999995,-87.4836,Catherine,Alabama,AL,Wilcox,US
36741,32.0061,-86.9817,Furman,Alabama,AL,Wilcox,US
36751,31.8504,-87.5682,Lower Peach Tree,Alabama,AL,Wilcox,US
36753,32.0481,-87.2623,Mc Williams,Alabama,AL,Wilcox,US
36766,31.947,-87.0745,Oak Hill,Alabama,AL,Wilcox,US
36768,31.9265,-87.0047,Pine Apple,Alabama,AL,Wilcox,US
36769,31.9735,-87.5771,Pine Hill,Alabama,AL,Wilcox,US
35540,34.2056,-87.1948,Addison,Alabama,AL,Winston,US
35541,34.0632,-87.1828,Arley,Alabama,AL,Winston,US
35551,34.1701,-87.6059,Delmar,Alabama,AL,Winston,US
35553,34.1387,-87.3974,Double Springs,Alabama,AL,Winston,US
35565,34.2314,-87.5938,Haleyville,Alabama,AL,Winston,US
35572,34.118,-87.2618,Houston,Alabama,AL,Winston,US
35575,34.053000000000004,-87.5398,Lynn,Alabama,AL,Winston,US
35577,34.0934,-87.6008,Natural Bridge,Alabama,AL,Winston,US
72003,34.4146,-91.431,Almyra,Arkansas,AR,Arkansas,US
72026,34.5095,-91.29899999999999,Casscoe,Arkansas,AR,Arkansas,US
72038,34.4528,-91.2692,Crocketts Bluff,Arkansas,AR,Arkansas,US
72042,34.2853,-91.3336,De Witt,Arkansas,AR,Arkansas,US
72048,34.2435,-91.1398,Ethel,Arkansas,AR,Arkansas,US
72055,34.1218,-91.38,Gillett,Arkansas,AR,Arkansas,US
72073,34.4034,-91.679,Humphrey,Arkansas,AR,Arkansas,US
72140,34.3878,-91.1463,Saint Charles,Arkansas,AR,Arkansas,US
72160,34.4854,-91.5487,Stuttgart,Arkansas,AR,Arkansas,US
72166,34.0893,-91.2437,Tichnor,Arkansas,AR,Arkansas,US
71635,33.156,-91.9975,Crossett,Arkansas,AR,Ashley,US
71642,33.3631,-91.9088,Fountain Hill,Arkansas,AR,Ashley,US
71646,33.2058,-91.8023,Hamburg,Arkansas,AR,Ashley,US
71658,33.3075,-91.5228,Montrose,Arkansas,AR,Ashley,US
71661,33.1213,-91.5428,Parkdale,Arkansas,AR,Ashley,US
71663,33.2318,-91.5139,Portland,Arkansas,AR,Ashley,US
71676,33.0576,-91.5723,Wilmot,Arkansas,AR,Ashley,US
72537,36.4618,-92.2284,Gamaliel,Arkansas,AR,Baxter,US
72544,36.4105,-92.1951,Henderson,Arkansas,AR,Baxter,US
72617,36.0068,-92.3917,Big Flat,Arkansas,AR,Baxter,US
72623,36.4724,-92.3296,Clarkridge,Arkansas,AR,Baxter,US
72626,36.2712,-92.5354,Cotter,Arkansas,AR,Baxter,US
72635,36.3175,-92.4736,Gassville,Arkansas,AR,Baxter,US
72642,36.373000000000005,-92.5422,Lakeview,Arkansas,AR,Baxter,US
72651,36.3933,-92.4881,Midway,Arkansas,AR,Baxter,US
72653,36.3312,-92.3753,Mountain Home,Arkansas,AR,Baxter,US
72654,36.3353,-92.3852,Mountain Home,Arkansas,AR,Baxter,US
72658,36.2066,-92.273,Norfork,Arkansas,AR,Baxter,US
72659,36.2095,-92.2843,Norfork,Arkansas,AR,Baxter,US
72711,36.4047,-94.0713,Avoca,Arkansas,AR,Benton,US
72712,36.3577,-94.2224,Bentonville,Arkansas,AR,Benton,US
72714,36.4676,-94.2166,Bella Vista,Arkansas,AR,Benton,US
72715,36.4677,-94.3209,Bella Vista,Arkansas,AR,Benton,US
72716,36.3729,-94.2088,Bentonville,Arkansas,AR,Benton,US
72718,36.2738,-94.2183,Cave Springs,Arkansas,AR,Benton,US
72719,36.367,-94.3089,Centerton,Arkansas,AR,Benton,US
72722,36.3347,-94.4534,Decatur,Arkansas,AR,Benton,US
72732,36.4288,-93.9512,Garfield,Arkansas,AR,Benton,US
72733,36.4864,-93.9277,Gateway,Arkansas,AR,Benton,US
72734,36.2652,-94.4751,Gentry,Arkansas,AR,Benton,US
72736,36.4155,-94.4779,Gravette,Arkansas,AR,Benton,US
72739,36.4416,-94.339,Hiwasse,Arkansas,AR,Benton,US
72745,36.2554,-94.1308,Lowell,Arkansas,AR,Benton,US
72747,36.3811,-94.5783,Maysville,Arkansas,AR,Benton,US
72751,36.4539,-94.118,Pea Ridge,Arkansas,AR,Benton,US
72756,36.3363,-94.1148,Rogers,Arkansas,AR,Benton,US
72757,36.332,-94.1185,Rogers,Arkansas,AR,Benton,US
72758,36.3169,-94.1545,Rogers,Arkansas,AR,Benton,US
72761,36.18,-94.52799999999999,Siloam Springs,Arkansas,AR,Benton,US
72768,36.4794,-94.4521,Sulphur Springs,Arkansas,AR,Benton,US
72260,34.7399,-92.34,Little Rock,Arkansas,AR,Boone,US
72601,36.2417,-93.1062,Harrison,Arkansas,AR,Boone,US
72602,36.2298,-93.1077,Harrison,Arkansas,AR,Boone,US
72611,36.2998,-93.2792,Alpena,Arkansas,AR,Boone,US
72615,36.3083,-93.0321,Bergman,Arkansas,AR,Boone,US
72630,36.4645,-92.9202,Diamond City,Arkansas,AR,Boone,US
72633,36.1534,-92.915,Everton,Arkansas,AR,Boone,US
72644,36.3848,-93.0039,Lead Hill,Arkansas,AR,Boone,US
72662,36.4612,-93.1888,Omaha,Arkansas,AR,Boone,US
72682,36.1351,-92.7541,Valley Springs,Arkansas,AR,Boone,US
71631,33.5497,-92.2604,Banks,Arkansas,AR,Bradley,US
71647,33.39,-92.156,Hermitage,Arkansas,AR,Bradley,US
71651,33.3889,-92.2966,Jersey,Arkansas,AR,Bradley,US
71671,33.614000000000004,-92.0778,Warren,Arkansas,AR,Bradley,US
71744,33.5376,-92.5295,Hampton,Arkansas,AR,Calhoun,US
71745,33.5101,-92.3988,Harrell,Arkansas,AR,Calhoun,US
71766,33.7768,-92.4862,Thornton,Arkansas,AR,Calhoun,US
72613,36.4311,-93.6994,Beaver,Arkansas,AR,Carroll,US
72616,36.3519,-93.5587,Berryville,Arkansas,AR,Carroll,US
72631,36.435,-93.7673,Eureka Springs,Arkansas,AR,Carroll,US
72632,36.4175,-93.7379,Eureka Springs,Arkansas,AR,Carroll,US
72638,36.3224,-93.4059,Green Forest,Arkansas,AR,Carroll,US
72660,36.4613,-93.4321,Oak Grove,Arkansas,AR,Carroll,US
71638,33.5241,-91.4394,Dermott,Arkansas,AR,Chicot,US
71640,33.1213,-91.2716,Eudora,Arkansas,AR,Chicot,US
71653,33.3274,-91.2825,Lake Village,Arkansas,AR,Chicot,US
71721,33.8887,-93.2041,Beirne,Arkansas,AR,Clark,US
71728,34.0103,-93.0976,Curtis,Arkansas,AR,Clark,US
71743,33.9125,-93.1417,Gurdon,Arkansas,AR,Clark,US
71772,33.8309,-93.1263,Whelen Springs,Arkansas,AR,Clark,US
71920,34.229,-93.3791,Alpine,Arkansas,AR,Clark,US
71921,34.2594,-93.4206,Amity,Arkansas,AR,Clark,US
71923,34.1153,-93.069,Arkadelphia,Arkansas,AR,Clark,US
71962,34.0551,-93.2897,Okolona,Arkansas,AR,Clark,US
71998,34.1209,-93.0538,Arkadelphia,Arkansas,AR,Clark,US
71999,34.1209,-93.0538,Arkadelphia,Arkansas,AR,Clark,US
72422,36.4155,-90.587,Corning,Arkansas,AR,Clay,US
72424,36.3897,-90.7231,Datto,Arkansas,AR,Clay,US
72430,36.3348,-90.2253,Greenway,Arkansas,AR,Clay,US
72435,36.3176,-90.59899999999999,Knobel,Arkansas,AR,Clay,US
72441,36.437,-90.3837,Mc Dougal,Arkansas,AR,Clay,US
72453,36.283,-90.6702,Peach Orchard,Arkansas,AR,Clay,US
72454,36.387,-90.1926,Piggott,Arkansas,AR,Clay,US
72456,36.4317,-90.2751,Pollard,Arkansas,AR,Clay,US
72461,36.2672,-90.2702,Rector,Arkansas,AR,Clay,US
72464,36.4534,-90.1454,Saint Francis,Arkansas,AR,Clay,US
72470,36.4536,-90.7281,Success,Arkansas,AR,Clay,US
72044,35.6321,-92.15700000000001,Edgemont,Arkansas,AR,Cleburne,US
72067,35.5685,-92.1341,Higden,Arkansas,AR,Cleburne,US
72130,35.6674,-92.0933,Prim,Arkansas,AR,Cleburne,US
72131,35.405,-92.1333,Quitman,Arkansas,AR,Cleburne,US
72179,35.5106,-91.8648,Wilburn,Arkansas,AR,Cleburne,US
72523,35.6414,-91.8333,Concord,Arkansas,AR,Cleburne,US
72530,35.6616,-91.9398,Drasco,Arkansas,AR,Cleburne,US
72543,35.5103,-92.0392,Heber Springs,Arkansas,AR,Cleburne,US
72545,35.5352,-92.0213,Heber Springs,Arkansas,AR,Cleburne,US
72546,35.5816,-91.9305,Ida,Arkansas,AR,Cleburne,US
72581,35.547,-91.9704,Tumbling Shoals,Arkansas,AR,Cleburne,US
71652,33.86,-92.3014,Kingsland,Arkansas,AR,Cleveland,US
71660,33.7588,-92.1939,New Edinburg,Arkansas,AR,Cleveland,US
71665,33.9453,-92.1188,Rison,Arkansas,AR,Cleveland,US
71740,33.0891,-93.1987,Emerson,Arkansas,AR,Columbia,US
71752,33.3622,-93.193,Mc Neil,Arkansas,AR,Columbia,US
71753,33.2647,-93.2392,Magnolia,Arkansas,AR,Columbia,US
71754,33.2426,-93.23,Magnolia,Arkansas,AR,Columbia,US
71770,33.36,-93.2949,Waldo,Arkansas,AR,Columbia,US
71861,33.108000000000004,-93.446,Taylor,Arkansas,AR,Columbia,US
72027,35.3981,-92.5582,Center Ridge,Arkansas,AR,Conway,US
72030,35.3955,-92.70200000000001,Cleveland,Arkansas,AR,Conway,US
72063,35.2907,-92.7783,Hattieville,Arkansas,AR,Conway,US
72080,35.5699,-92.8251,Jerusalem,Arkansas,AR,Conway,US
72107,35.1356,-92.5498,Menifee,Arkansas,AR,Conway,US
72110,35.1692,-92.7354,Morrilton,Arkansas,AR,Conway,US
72127,35.1575,-92.6204,Plumerville,Arkansas,AR,Conway,US
72156,35.2701,-92.6754,Solgohachia,Arkansas,AR,Conway,US
72157,35.2749,-92.5457,Springfield,Arkansas,AR,Conway,US
72401,35.833,-90.6965,Jonesboro,Arkansas,AR,Craighead,US
72402,35.8088,-90.6529,Jonesboro,Arkansas,AR,Craighead,US
72403,35.8305,-90.7039,Jonesboro,Arkansas,AR,Craighead,US
72404,35.7792,-90.766,Jonesboro,Arkansas,AR,Craighead,US
72411,35.7456,-90.5507,Bay,Arkansas,AR,Craighead,US
72414,35.8368,-90.4005,Black Oak,Arkansas,AR,Craighead,US
72416,35.9086,-90.7848,Bono,Arkansas,AR,Craighead,US
72417,35.9165,-90.5762,Brookland,Arkansas,AR,Craighead,US
72419,35.759,-90.3358,Caraway,Arkansas,AR,Craighead,US
72421,35.8301,-90.941,Cash,Arkansas,AR,Craighead,US
72427,35.864000000000004,-90.9428,Egypt,Arkansas,AR,Craighead,US
72437,35.8171,-90.4423,Lake City,Arkansas,AR,Craighead,US
72447,35.9002,-90.3437,Monette,Arkansas,AR,Craighead,US
72467,35.8422,-90.6735,State University,Arkansas,AR,Craighead,US
72921,35.5,-94.2073,Alma,Arkansas,AR,Crawford,US
72932,35.603,-94.3749,Cedarville,Arkansas,AR,Crawford,US
72934,35.6898,-94.20200000000001,Chester,Arkansas,AR,Crawford,US
72935,35.4923,-94.1377,Dyer,Arkansas,AR,Crawford,US
72946,35.6464,-94.1497,Mountainburg,Arkansas,AR,Crawford,US
72947,35.5172,-93.9885,Mulberry,Arkansas,AR,Crawford,US
72948,35.6743,-94.4124,Natural Dam,Arkansas,AR,Crawford,US
72952,35.5468,-94.2913,Rudy,Arkansas,AR,Crawford,US
72955,35.5748,-94.4349,Uniontown,Arkansas,AR,Crawford,US
72956,35.454,-94.3278,Van Buren,Arkansas,AR,Crawford,US
72957,35.4368,-94.3483,Van Buren,Arkansas,AR,Crawford,US
72301,35.1484,-90.1779,West Memphis,Arkansas,AR,Crittenden,US
72303,35.1465,-90.1845,West Memphis,Arkansas,AR,Crittenden,US
72325,35.3093,-90.2362,Clarkedale,Arkansas,AR,Crittenden,US
72327,35.2119,-90.3351,Crawfordsville,Arkansas,AR,Crittenden,US
72331,35.2799,-90.4503,Earle,Arkansas,AR,Crittenden,US
72332,35.1042,-90.3133,Edmondson,Arkansas,AR,Crittenden,US
72339,35.4057,-90.2714,Gilmore,Arkansas,AR,Crittenden,US
72364,35.2077,-90.1989,Marion,Arkansas,AR,Crittenden,US
72376,35.0834,-90.255,Proctor,Arkansas,AR,Crittenden,US
72384,35.3439,-90.2978,Turrell,Arkansas,AR,Crittenden,US
72324,35.3991,-90.7613,Cherry Valley,Arkansas,AR,Cross,US
72347,35.3995,-90.9823,Hickory Ridge,Arkansas,AR,Cross,US
72373,35.2586,-90.5564,Parkin,Arkansas,AR,Cross,US
72387,35.3245,-90.7712,Vanndale,Arkansas,AR,Cross,US
72396,35.233000000000004,-90.79299999999999,Wynne,Arkansas,AR,Cross,US
71725,34.0751,-92.5554,Carthage,Arkansas,AR,Dallas,US
71742,33.8176,-92.4225,Fordyce,Arkansas,AR,Dallas,US
71748,33.9118,-92.4246,Ivan,Arkansas,AR,Dallas,US
71763,33.9143,-92.8532,Sparkman,Arkansas,AR,Dallas,US
71630,33.6143,-91.2325,Arkansas City,Arkansas,AR,Desha,US
71639,33.8921,-91.4861,Dumas,Arkansas,AR,Desha,US
71654,33.6297,-91.3928,Mc Gehee,Arkansas,AR,Desha,US
71662,33.842,-91.5022,Pickens,Arkansas,AR,Desha,US
71666,33.7609,-91.2757,Rohwer,Arkansas,AR,Desha,US
71670,33.6981,-91.4433,Tillar,Arkansas,AR,Desha,US
71674,33.8907,-91.2815,Watson,Arkansas,AR,Desha,US
72379,34.0665,-91.0071,Snow Lake,Arkansas,AR,Desha,US
71655,33.625,-91.7948,Monticello,Arkansas,AR,Drew,US
71656,33.629,-91.791,Monticello,Arkansas,AR,Drew,US
71657,33.629,-91.791,Monticello,Arkansas,AR,Drew,US
71675,33.6213,-91.9257,Wilmar,Arkansas,AR,Drew,US
71677,33.7471,-91.4649,Winchester,Arkansas,AR,Drew,US
72032,35.0842,-92.4236,Conway,Arkansas,AR,Faulkner,US
72033,35.1053,-92.3549,Conway,Arkansas,AR,Faulkner,US
72034,35.0823,-92.4683,Conway,Arkansas,AR,Faulkner,US
72035,35.1053,-92.3549,Conway,Arkansas,AR,Faulkner,US
72039,35.3673,-92.4096,Damascus,Arkansas,AR,Faulkner,US
72047,35.2087,-92.2123,Enola,Arkansas,AR,Faulkner,US
72058,35.2295,-92.3578,Greenbrier,Arkansas,AR,Faulkner,US
72061,35.3239,-92.2878,Guy,Arkansas,AR,Faulkner,US
72106,34.9669,-92.4001,Mayflower,Arkansas,AR,Faulkner,US
72111,35.2265,-92.124,Mount Vernon,Arkansas,AR,Faulkner,US
72173,35.0719,-92.1832,Vilonia,Arkansas,AR,Faulkner,US
72181,35.1645,-92.45299999999999,Wooster,Arkansas,AR,Faulkner,US
72820,35.41,-93.7286,Alix,Arkansas,AR,Franklin,US
72821,35.4346,-93.7598,Altus,Arkansas,AR,Franklin,US
72928,35.2971,-93.9454,Branch,Arkansas,AR,Franklin,US
72930,35.4252,-94.0409,Cecil,Arkansas,AR,Franklin,US
72933,35.3115,-94.0337,Charleston,Arkansas,AR,Franklin,US
72949,35.5246,-93.8374,Ozark,Arkansas,AR,Franklin,US
72515,36.2901,-92.055,Bexar,Arkansas,AR,Fulton,US
72520,36.4025,-91.7262,Camp,Arkansas,AR,Fulton,US
72531,36.3238,-92.0934,Elizabeth,Arkansas,AR,Fulton,US
72538,36.4364,-92.0995,Gepp,Arkansas,AR,Fulton,US
72539,36.2942,-91.7474,Glencoe,Arkansas,AR,Fulton,US
72554,36.4076,-91.5757,Mammoth Spring,Arkansas,AR,Fulton,US
72576,36.3766,-91.8759,Salem,Arkansas,AR,Fulton,US
72578,36.4747,-91.8891,Sturkie,Arkansas,AR,Fulton,US
72583,36.3924,-91.9932,Viola,Arkansas,AR,Fulton,US
71901,34.5268,-92.9587,Hot Springs National Park,Arkansas,AR,Garland,US
71902,34.5814,-93.0994,Hot Springs National Park,Arkansas,AR,Garland,US
71903,34.5814,-93.0994,Hot Springs National Park,Arkansas,AR,Garland,US
71909,34.6484,-92.98299999999999,Hot Springs Village,Arkansas,AR,Garland,US
71910,34.672,-92.9988,Hot Springs Village,Arkansas,AR,Garland,US
71913,34.5317,-93.0638,Hot Springs National Park,Arkansas,AR,Garland,US
71914,34.5137,-92.9685,Hot Springs National Park,Arkansas,AR,Garland,US
71949,34.7094,-93.0382,Jessieville,Arkansas,AR,Garland,US
71956,34.5976,-93.1539,Mountain Pine,Arkansas,AR,Garland,US
71964,34.4351,-93.242,Pearcy,Arkansas,AR,Garland,US
71968,34.515,-93.2897,Royal,Arkansas,AR,Garland,US
72087,34.5562,-92.834,Lonsdale,Arkansas,AR,Garland,US
72057,34.1309,-92.3109,Grapevine,Arkansas,AR,Grant,US
72084,34.1856,-92.5979,Leola,Arkansas,AR,Grant,US
72128,34.3023,-92.6095,Poyen,Arkansas,AR,Grant,US
72129,34.3079,-92.5131,Prattsville,Arkansas,AR,Grant,US
72150,34.3165,-92.3657,Sheridan,Arkansas,AR,Grant,US
72412,36.1281,-90.6914,Beech Grove,Arkansas,AR,Greene,US
72425,36.1995,-90.7345,Delaplaine,Arkansas,AR,Greene,US
72436,36.2359,-90.4811,Lafe,Arkansas,AR,Greene,US
72443,36.1951,-90.3837,Marmaduke,Arkansas,AR,Greene,US
72450,36.06,-90.5251,Paragould,Arkansas,AR,Greene,US
72451,36.0584,-90.4973,Paragould,Arkansas,AR,Greene,US
72474,36.0413,-90.6718,Walcott,Arkansas,AR,Greene,US
71801,33.6736,-93.6068,Hope,Arkansas,AR,Hempstead,US
71802,33.6671,-93.5916,Hope,Arkansas,AR,Hempstead,US
71825,33.8718,-93.5771,Blevins,Arkansas,AR,Hempstead,US
71831,33.7935,-93.807,Columbus,Arkansas,AR,Hempstead,US
71838,33.6299,-93.8086,Fulton,Arkansas,AR,Hempstead,US
71847,33.923,-93.6266,Mc Caskill,Arkansas,AR,Hempstead,US
71855,33.9028,-93.7714,Ozan,Arkansas,AR,Hempstead,US
71862,33.7546,-93.6735,Washington,Arkansas,AR,Hempstead,US
71929,34.311,-93.1872,Bismarck,Arkansas,AR,Hot Spring,US
71933,34.3848,-93.3819,Bonnerdale,Arkansas,AR,Hot Spring,US
71941,34.2212,-92.9094,Donaldson,Arkansas,AR,Hot Spring,US
71942,34.2235,-93.0024,Friendship,Arkansas,AR,Hot Spring,US
72019,34.604,-92.6259,Benton,Arkansas,AR,Hot Spring,US
72104,34.3557,-92.8292,Malvern,Arkansas,AR,Hot Spring,US
72105,34.4374,-92.8943,Jones Mill,Arkansas,AR,Hot Spring,US
71833,34.1323,-94.0152,Dierks,Arkansas,AR,Howard,US
71851,33.8639,-93.9188,Mineral Springs,Arkansas,AR,Howard,US
71852,33.9576,-93.8707,Nashville,Arkansas,AR,Howard,US
71859,33.7599,-93.8767,Saratoga,Arkansas,AR,Howard,US
71971,34.2921,-94.0314,Umpire,Arkansas,AR,Howard,US
72165,35.5762,-91.4539,Thida,Arkansas,AR,Independence,US
72501,35.7826,-91.6352,Batesville,Arkansas,AR,Independence,US
72503,35.7346,-91.5343,Batesville,Arkansas,AR,Independence,US
72522,35.8184,-91.4387,Charlotte,Arkansas,AR,Independence,US
72524,35.8184,-91.3375,Cord,Arkansas,AR,Independence,US
72526,35.8729,-91.75399999999999,Cushman,Arkansas,AR,Independence,US
72527,35.7411,-91.6985,Desha,Arkansas,AR,Independence,US
72534,35.6023,-91.7341,Floral,Arkansas,AR,Independence,US
72550,35.7177,-91.7414,Locust Grove,Arkansas,AR,Independence,US
72553,35.6941,-91.4753,Magness,Arkansas,AR,Independence,US
72562,35.7118,-91.4394,Newark,Arkansas,AR,Independence,US
72564,35.6131,-91.4703,Oil Trough,Arkansas,AR,Independence,US
72568,35.5893,-91.632,Pleasant Plains,Arkansas,AR,Independence,US
72571,35.6638,-91.53399999999999,Rosie,Arkansas,AR,Independence,US
72575,35.6919,-91.5989,Salado,Arkansas,AR,Independence,US
72579,35.7545,-91.5073,Sulphur Rock,Arkansas,AR,Independence,US
72512,36.2025,-91.7553,Horseshoe Bend,Arkansas,AR,Izard,US
72517,36.1358,-91.9513,Brockwell,Arkansas,AR,Izard,US
72519,36.1202,-92.1867,Calico Rock,Arkansas,AR,Izard,US
72528,36.2229,-92.1177,Dolph,Arkansas,AR,Izard,US
72536,36.1703,-91.77600000000001,Franklin,Arkansas,AR,Izard,US
72540,35.9266,-91.9103,Guion,Arkansas,AR,Izard,US
72556,36.0635,-91.9079,Melbourne,Arkansas,AR,Izard,US
72561,35.9759,-91.785,Mount Pleasant,Arkansas,AR,Izard,US
72565,36.2114,-91.9258,Oxford,Arkansas,AR,Izard,US
72566,36.1677,-92.1073,Pineville,Arkansas,AR,Izard,US
72573,36.0688,-91.791,Sage,Arkansas,AR,Izard,US
72584,36.163000000000004,-91.8471,Violet Hill,Arkansas,AR,Izard,US
72585,36.1865,-92.0088,Wideman,Arkansas,AR,Izard,US
72587,36.2345,-91.8154,Wiseman,Arkansas,AR,Izard,US
72005,35.562,-91.1104,Amagon,Arkansas,AR,Jackson,US
72014,35.4291,-91.1057,Beedeville,Arkansas,AR,Jackson,US
72043,35.6336,-91.2592,Diaz,Arkansas,AR,Jackson,US
72075,35.6414,-91.3072,Jacksonport,Arkansas,AR,Jackson,US
72112,35.5988,-91.2571,Newport,Arkansas,AR,Jackson,US
72169,35.3844,-91.2232,Tupelo,Arkansas,AR,Jackson,US
72431,35.6498,-91.074,Grubbs,Arkansas,AR,Jackson,US
72471,35.8274,-91.1264,Swifton,Arkansas,AR,Jackson,US
72473,35.7307,-91.2003,Tuckerman,Arkansas,AR,Jackson,US
71601,34.209,-91.9859,Pine Bluff,Arkansas,AR,Jefferson,US
71602,34.274,-92.09100000000001,White Hall,Arkansas,AR,Jefferson,US
71603,34.1897,-92.0448,Pine Bluff,Arkansas,AR,Jefferson,US
71611,34.2615,-91.9551,Pine Bluff,Arkansas,AR,Jefferson,US
71612,34.274,-92.09100000000001,White Hall,Arkansas,AR,Jefferson,US
71613,34.1579,-92.0713,Pine Bluff,Arkansas,AR,Jefferson,US
71659,34.1465,-91.7951,Moscow,Arkansas,AR,Jefferson,US
72004,34.3062,-91.8289,Altheimer,Arkansas,AR,Jefferson,US
72079,34.3934,-92.2029,Jefferson,Arkansas,AR,Jefferson,US
72132,34.4526,-92.1758,Redfield,Arkansas,AR,Jefferson,US
72133,34.1715,-91.5656,Reydell,Arkansas,AR,Jefferson,US
72152,34.3581,-91.9933,Sherrill,Arkansas,AR,Jefferson,US
72168,34.4414,-91.9163,Tucker,Arkansas,AR,Jefferson,US
72175,34.3936,-91.7549,Wabbaseka,Arkansas,AR,Jefferson,US
72182,34.4291,-92.0599,Wright,Arkansas,AR,Jefferson,US
72830,35.4908,-93.4911,Clarksville,Arkansas,AR,Johnson,US
72832,35.4371,-93.67200000000001,Coal Hill,Arkansas,AR,Johnson,US
72839,35.6155,-93.2726,Hagarville,Arkansas,AR,Johnson,US
72840,35.4436,-93.6142,Hartman,Arkansas,AR,Johnson,US
72845,35.3749,-93.3618,Knoxville,Arkansas,AR,Johnson,US
72846,35.4349,-93.3552,Lamar,Arkansas,AR,Johnson,US
72852,35.7095,-93.5585,Oark,Arkansas,AR,Johnson,US
72854,35.6575,-93.4311,Ozone,Arkansas,AR,Johnson,US
71826,33.107,-93.6275,Bradley,Arkansas,AR,Lafayette,US
71827,33.3753,-93.447,Buckner,Arkansas,AR,Lafayette,US
71839,33.3352,-93.7316,Garland City,Arkansas,AR,Lafayette,US
71845,33.3736,-93.5953,Lewisville,Arkansas,AR,Lafayette,US
71860,33.3569,-93.5013,Stamps,Arkansas,AR,Lafayette,US
72410,35.9423,-91.081,Alicia,Arkansas,AR,Lawrence,US
72415,36.1149,-91.1176,Black Rock,Arkansas,AR,Lawrence,US
72433,36.0326,-90.9715,Hoxie,Arkansas,AR,Lawrence,US
72434,36.1976,-91.1854,Imboden,Arkansas,AR,Lawrence,US
72440,35.9813,-91.2676,Lynn,Arkansas,AR,Lawrence,US
72445,35.9728,-91.0235,Minturn,Arkansas,AR,Lawrence,US
72457,36.0865,-91.0673,Portia,Arkansas,AR,Lawrence,US
72458,36.08,-91.1482,Powhatan,Arkansas,AR,Lawrence,US
72459,36.2029,-91.2593,Ravenden,Arkansas,AR,Lawrence,US
72465,35.9643,-90.8954,Sedgwick,Arkansas,AR,Lawrence,US
72466,36.0908,-91.2745,Smithville,Arkansas,AR,Lawrence,US
72469,35.9673,-91.2935,Strawberry,Arkansas,AR,Lawrence,US
72476,36.0244,-90.9288,Walnut Ridge,Arkansas,AR,Lawrence,US
72572,35.8781,-91.3004,Saffell,Arkansas,AR,Lawrence,US
72311,34.7195,-90.8969,Aubrey,Arkansas,AR,Lee,US
72320,34.8548,-90.5377,Brickeys,Arkansas,AR,Lee,US
72341,34.8838,-90.7666,Haynes,Arkansas,AR,Lee,US
72352,34.7697,-90.7552,La Grange,Arkansas,AR,Lee,US
72360,34.7759,-90.7785,Marianna,Arkansas,AR,Lee,US
72368,34.803000000000004,-91.006,Moro,Arkansas,AR,Lee,US
71643,34.0345,-91.5768,Gould,Arkansas,AR,Lincoln,US
71644,34.1032,-91.7057,Grady,Arkansas,AR,Lincoln,US
71667,33.9405,-91.8653,Star City,Arkansas,AR,Lincoln,US
71678,33.9787,-91.6991,Yorktown,Arkansas,AR,Lincoln,US
71820,33.7944,-94.2681,Alleene,Arkansas,AR,Little River,US
71822,33.6787,-94.1351,Ashdown,Arkansas,AR,Little River,US
71836,33.7176,-94.3881,Foreman,Arkansas,AR,Little River,US
71853,33.5826,-94.0427,Ogden,Arkansas,AR,Little River,US
71865,33.7475,-94.1518,Wilton,Arkansas,AR,Little River,US
71866,33.8583,-94.3952,Winthrop,Arkansas,AR,Little River,US
72826,35.1304,-93.7116,Blue Mountain,Arkansas,AR,Logan,US
72835,35.278,-93.3462,Delaware,Arkansas,AR,Logan,US
72851,35.3189,-93.4446,New Blaine,Arkansas,AR,Logan,US
72855,35.2941,-93.7265,Paris,Arkansas,AR,Logan,US
72863,35.3585,-93.5454,Scranton,Arkansas,AR,Logan,US
72865,35.3153,-93.5991,Subiaco,Arkansas,AR,Logan,US
72927,35.1364,-93.9274,Booneville,Arkansas,AR,Logan,US
72943,35.1587,-93.8003,Magazine,Arkansas,AR,Logan,US
72951,35.2917,-93.8899,Ratcliff,Arkansas,AR,Logan,US
72007,34.9921,-91.9798,Austin,Arkansas,AR,Lonoke,US
72023,34.9457,-92.0318,Cabot,Arkansas,AR,Lonoke,US
72024,34.7933,-91.7459,Carlisle,Arkansas,AR,Lonoke,US
72037,34.5387,-91.874,Coy,Arkansas,AR,Lonoke,US
72046,34.5575,-91.9484,England,Arkansas,AR,Lonoke,US
72072,34.4857,-91.7624,Humnoke,Arkansas,AR,Lonoke,US
72083,34.6041,-92.0078,Keo,Arkansas,AR,Lonoke,US
72086,34.7832,-91.9214,Lonoke,Arkansas,AR,Lonoke,US
72176,34.9532,-91.9004,Ward,Arkansas,AR,Lonoke,US
72721,35.8607,-93.8112,Combs,Arkansas,AR,Madison,US
72738,36.1422,-93.8633,Hindsville,Arkansas,AR,Madison,US
72740,36.1043,-93.7279,Huntsville,Arkansas,AR,Madison,US
72742,36.0485,-93.5044,Kingston,Arkansas,AR,Madison,US
72752,35.8346,-93.6181,Pettigrew,Arkansas,AR,Madison,US
72760,35.8496,-93.7347,Saint Paul,Arkansas,AR,Madison,US
72773,36.0114,-93.8526,Wesley,Arkansas,AR,Madison,US
72776,35.9356,-93.62100000000001,Witter,Arkansas,AR,Madison,US
72619,36.371,-92.5938,Bull Shoals,Arkansas,AR,Marion,US
72634,36.2682,-92.57799999999999,Flippin,Arkansas,AR,Marion,US
72661,36.4442,-92.5832,Oakland,Arkansas,AR,Marion,US
72668,36.435,-92.7615,Peel,Arkansas,AR,Marion,US
72672,36.2486,-92.8416,Pyatt,Arkansas,AR,Marion,US
72677,36.2523,-92.6907,Summit,Arkansas,AR,Marion,US
72687,36.2253,-92.7245,Yellville,Arkansas,AR,Marion,US
71834,33.1054,-93.9543,Doddridge,Arkansas,AR,Miller,US
71837,33.3025,-93.90100000000001,Fouke,Arkansas,AR,Miller,US
71840,33.3837,-93.9096,Genoa,Arkansas,AR,Miller,US
71854,33.431,-93.8765,Texarkana,Arkansas,AR,Miller,US
72310,35.9201,-89.7981,Armorel,Arkansas,AR,Mississippi,US
72313,35.5365,-90.1268,Bassett,Arkansas,AR,Mississippi,US
72315,35.9273,-89.919,Blytheville,Arkansas,AR,Mississippi,US
72316,35.9273,-89.919,Blytheville,Arkansas,AR,Mississippi,US
72319,35.9598,-89.97200000000001,Gosnell,Arkansas,AR,Mississippi,US
72321,35.8173,-89.9393,Burdette,Arkansas,AR,Mississippi,US
72329,35.6253,-90.0138,Driver,Arkansas,AR,Mississippi,US
72330,35.5954,-90.2157,Dyess,Arkansas,AR,Mississippi,US
72338,35.4591,-90.1884,Frenchmans Bayou,Arkansas,AR,Mississippi,US
72350,35.5052,-90.1478,Joiner,Arkansas,AR,Mississippi,US
72351,35.6737,-90.0963,Keiser,Arkansas,AR,Mississippi,US
72358,35.7608,-89.92200000000001,Luxora,Arkansas,AR,Mississippi,US
72370,35.7019,-89.9798,Osceola,Arkansas,AR,Mississippi,US
72391,35.6831,-90.2626,West Ridge,Arkansas,AR,Mississippi,US
72395,35.566,-90.0427,Wilson,Arkansas,AR,Mississippi,US
72426,35.8554,-90.0418,Dell,Arkansas,AR,Mississippi,US
72428,35.7337,-90.1838,Etowah,Arkansas,AR,Mississippi,US
72438,35.9332,-90.1955,Leachville,Arkansas,AR,Mississippi,US
72442,35.8439,-90.1806,Manila,Arkansas,AR,Mississippi,US
72021,34.8781,-91.1886,Brinkley,Arkansas,AR,Monroe,US
72029,34.6601,-91.2564,Clarendon,Arkansas,AR,Monroe,US
72069,34.5993,-91.1844,Holly Grove,Arkansas,AR,Monroe,US
72108,34.7348,-91.1046,Monroe,Arkansas,AR,Monroe,US
72134,34.6286,-91.3771,Roe,Arkansas,AR,Monroe,US
71935,34.3913,-93.7637,Caddo Gap,Arkansas,AR,Montgomery,US
71957,34.5612,-93.5749,Mount Ida,Arkansas,AR,Montgomery,US
71960,34.4596,-93.6743,Norman,Arkansas,AR,Montgomery,US
71961,34.6113,-93.8211,Oden,Arkansas,AR,Montgomery,US
71965,34.6399,-93.7429,Pencil Bluff,Arkansas,AR,Montgomery,US
71966,34.619,-93.7769,Oden,Arkansas,AR,Montgomery,US
71969,34.6462,-93.6741,Sims,Arkansas,AR,Montgomery,US
71970,34.6687,-93.5376,Story,Arkansas,AR,Montgomery,US
71722,33.7038,-93.1588,Bluff City,Arkansas,AR,Nevada,US
71828,33.7008,-93.2941,Cale,Arkansas,AR,Nevada,US
71835,33.6929,-93.4232,Emmet,Arkansas,AR,Nevada,US
71857,33.804,-93.3725,Prescott,Arkansas,AR,Nevada,US
71858,33.5926,-93.2766,Rosston,Arkansas,AR,Nevada,US
71864,33.7008,-93.2941,Willisville,Arkansas,AR,Nevada,US
72624,36.0979,-93.3099,Compton,Arkansas,AR,Newton,US
72628,35.853,-93.3174,Deer,Arkansas,AR,Newton,US
72640,36.0152,-93.046,Hasty,Arkansas,AR,Newton,US
72641,36.0038,-93.2048,Jasper,Arkansas,AR,Newton,US
72648,36.0695,-93.1566,Marble Falls,Arkansas,AR,Newton,US
72655,35.9407,-93.0654,Mount Judea,Arkansas,AR,Newton,US
72666,35.9451,-93.2677,Parthenon,Arkansas,AR,Newton,US
72670,36.0242,-93.3646,Ponca,Arkansas,AR,Newton,US
72683,35.9473,-93.0774,Vendor,Arkansas,AR,Newton,US
72685,36.083,-92.9716,Western Grove,Arkansas,AR,Newton,US
71701,33.5948,-92.8513,Camden,Arkansas,AR,Ouachita,US
71711,33.589,-92.8426,Camden,Arkansas,AR,Ouachita,US
71720,33.7298,-92.618,Bearden,Arkansas,AR,Ouachita,US
71726,33.6652,-92.9969,Chidester,Arkansas,AR,Ouachita,US
71751,33.4169,-92.777,Louann,Arkansas,AR,Ouachita,US
71764,33.455,-93.0214,Stephens,Arkansas,AR,Ouachita,US
72001,35.047,-92.9033,Adona,Arkansas,AR,Perry,US
72016,34.9847,-92.6308,Bigelow,Arkansas,AR,Perry,US
72025,35.0322,-93.04700000000001,Casa,Arkansas,AR,Perry,US
72070,35.0362,-92.6913,Houston,Arkansas,AR,Perry,US
72125,35.0443,-92.7958,Perry,Arkansas,AR,Perry,US
72126,34.9701,-92.8472,Perryville,Arkansas,AR,Perry,US
72312,34.5467,-90.7679,Barton,Arkansas,AR,Phillips,US
72328,34.1335,-90.9751,Crumrod,Arkansas,AR,Phillips,US
72333,34.3118,-90.8939,Elaine,Arkansas,AR,Phillips,US
72342,34.5325,-90.6298,Helena,Arkansas,AR,Phillips,US
72353,34.3286,-90.9652,Lambrook,Arkansas,AR,Phillips,US
72355,34.5979,-90.7523,Lexa,Arkansas,AR,Phillips,US
72366,34.5485,-90.9413,Marvell,Arkansas,AR,Phillips,US
72367,34.2198,-90.9504,Mellwood,Arkansas,AR,Phillips,US
72369,34.4542,-90.7684,Oneida,Arkansas,AR,Phillips,US
72374,34.5394,-90.8813,Poplar Grove,Arkansas,AR,Phillips,US
72383,34.4762,-91.0187,Turner,Arkansas,AR,Phillips,US
72389,34.3466,-90.8869,Wabash,Arkansas,AR,Phillips,US
72390,34.5496,-90.6545,West Helena,Arkansas,AR,Phillips,US
71922,34.0362,-93.4207,Antoine,Arkansas,AR,Pike,US
71940,34.0238,-93.5247,Delight,Arkansas,AR,Pike,US
71943,34.3192,-93.5559,Glenwood,Arkansas,AR,Pike,US
71950,34.2513,-93.741,Kirby,Arkansas,AR,Pike,US
71952,34.314,-93.8509,Langley,Arkansas,AR,Pike,US
71958,34.1017,-93.7109,Murfreesboro,Arkansas,AR,Pike,US
71959,34.2273,-93.8905,Newhope,Arkansas,AR,Pike,US
72354,35.6069,-90.3359,Lepanto,Arkansas,AR,Poinsett,US
72365,35.5349,-90.4194,Marked Tree,Arkansas,AR,Poinsett,US
72377,35.674,-90.3401,Rivervale,Arkansas,AR,Poinsett,US
72386,35.4865,-90.3519,Tyronza,Arkansas,AR,Poinsett,US
72429,35.514,-90.955,Fisher,Arkansas,AR,Poinsett,US
72432,35.5722,-90.7038,Harrisburg,Arkansas,AR,Poinsett,US
72472,35.5882,-90.56200000000001,Trumann,Arkansas,AR,Poinsett,US
72475,35.5631,-90.9207,Waldenburg,Arkansas,AR,Poinsett,US
72479,35.6291,-90.9289,Weiner,Arkansas,AR,Poinsett,US
71932,34.5372,-94.0972,Board Camp,Arkansas,AR,Polk,US
71937,34.4192,-94.3923,Cove,Arkansas,AR,Polk,US
71944,34.236999999999995,-94.3255,Grannis,Arkansas,AR,Polk,US
71945,34.4877,-94.3714,Hatfield,Arkansas,AR,Polk,US
71953,34.5814,-94.221,Mena,Arkansas,AR,Polk,US
71972,34.3941,-94.2535,Vandervoort,Arkansas,AR,Polk,US
71973,34.3088,-94.3403,Wickes,Arkansas,AR,Polk,US
72679,35.7341,-92.8391,Tilly,Arkansas,AR,Pope,US
72801,35.2842,-93.1315,Russellville,Arkansas,AR,Pope,US
72802,35.3067,-93.0712,Russellville,Arkansas,AR,Pope,US
72811,35.2784,-93.1338,Russellville,Arkansas,AR,Pope,US
72812,35.4231,-93.0544,Russellville,Arkansas,AR,Pope,US
72823,35.2449,-92.9507,Atkins,Arkansas,AR,Pope,US
72837,35.4074,-93.1355,Dover,Arkansas,AR,Pope,US
72843,35.5499,-92.9616,Hector,Arkansas,AR,Pope,US
72847,35.3744,-93.2736,London,Arkansas,AR,Pope,US
72856,35.7854,-93.0812,Pelsor,Arkansas,AR,Pope,US
72858,35.2398,-93.0564,Pottsville,Arkansas,AR,Pope,US
72017,34.8733,-91.3945,Biscoe,Arkansas,AR,Prairie,US
72040,34.9751,-91.5113,Des Arc,Arkansas,AR,Prairie,US
72041,34.7447,-91.4982,De Valls Bluff,Arkansas,AR,Prairie,US
72064,34.7838,-91.5767,Hazen,Arkansas,AR,Prairie,US
72066,34.9901,-91.7368,Hickory Plains,Arkansas,AR,Prairie,US
72170,34.5772,-91.4633,Ulm,Arkansas,AR,Prairie,US
72002,34.6313,-92.4727,Alexander,Arkansas,AR,Pulaski,US
72053,34.7093,-92.2283,College Station,Arkansas,AR,Pulaski,US
72065,34.5208,-92.2758,Hensley,Arkansas,AR,Pulaski,US
72076,34.919000000000004,-92.1419,Jacksonville,Arkansas,AR,Pulaski,US
72078,34.8662,-92.1101,Jacksonville,Arkansas,AR,Pulaski,US
72099,34.9074,-92.1397,Little Rock Air Force Base,Arkansas,AR,Pulaski,US
72103,34.6478,-92.3849,Mabelvale,Arkansas,AR,Pulaski,US
72113,34.8491,-92.4059,Maumelle,Arkansas,AR,Pulaski,US
72114,34.7666,-92.2629,North Little Rock,Arkansas,AR,Pulaski,US
72115,34.7695,-92.2671,North Little Rock,Arkansas,AR,Pulaski,US
72116,34.8059,-92.2305,North Little Rock,Arkansas,AR,Pulaski,US
72117,34.7658,-92.1524,North Little Rock,Arkansas,AR,Pulaski,US
72118,34.8337,-92.3289,North Little Rock,Arkansas,AR,Pulaski,US
72119,34.8017,-92.2598,North Little Rock,Arkansas,AR,Pulaski,US
72120,34.8807,-92.2303,Sherwood,Arkansas,AR,Pulaski,US
72124,34.7519,-92.3925,North Little Rock,Arkansas,AR,Pulaski,US
72135,34.8829,-92.5192,Roland,Arkansas,AR,Pulaski,US
72142,34.6942,-92.1157,Scott,Arkansas,AR,Pulaski,US
72164,34.6873,-92.2399,Sweet Home,Arkansas,AR,Pulaski,US
72180,34.5338,-92.2089,Woodson,Arkansas,AR,Pulaski,US
72183,34.6012,-92.1938,Wrightsville,Arkansas,AR,Pulaski,US
72190,34.7519,-92.3925,North Little Rock,Arkansas,AR,Pulaski,US
72199,34.8272,-92.2847,North Little Rock,Arkansas,AR,Pulaski,US
72201,34.7483,-92.2819,Little Rock,Arkansas,AR,Pulaski,US
72202,34.7363,-92.2741,Little Rock,Arkansas,AR,Pulaski,US
72203,34.8835,-92.3908,Little Rock,Arkansas,AR,Pulaski,US
72204,34.7269,-92.344,Little Rock,Arkansas,AR,Pulaski,US
72205,34.751,-92.3455,Little Rock,Arkansas,AR,Pulaski,US
72206,34.6836,-92.2776,Little Rock,Arkansas,AR,Pulaski,US
72207,34.7721,-92.3565,Little Rock,Arkansas,AR,Pulaski,US
72209,34.6725,-92.3529,Little Rock,Arkansas,AR,Pulaski,US
72210,34.7076,-92.46600000000001,Little Rock,Arkansas,AR,Pulaski,US
72211,34.7413,-92.4222,Little Rock,Arkansas,AR,Pulaski,US
72212,34.7871,-92.4222,Little Rock,Arkansas,AR,Pulaski,US
72214,34.7621,-92.2282,Little Rock,Arkansas,AR,Pulaski,US
72215,34.7519,-92.3925,Little Rock,Arkansas,AR,Pulaski,US
72216,34.8178,-92.2357,Little Rock,Arkansas,AR,Pulaski,US
72217,34.8302,-92.1702,Little Rock,Arkansas,AR,Pulaski,US
72219,34.7519,-92.3925,Little Rock,Arkansas,AR,Pulaski,US
72221,34.7519,-92.3925,Little Rock,Arkansas,AR,Pulaski,US
72222,34.7519,-92.3925,Little Rock,Arkansas,AR,Pulaski,US
72223,34.7902,-92.5044,Little Rock,Arkansas,AR,Pulaski,US
72225,34.7519,-92.3925,Little Rock,Arkansas,AR,Pulaski,US
72227,34.7757,-92.3724,Little Rock,Arkansas,AR,Pulaski,US
72231,34.8019,-92.1894,Little Rock,Arkansas,AR,Pulaski,US
72255,34.7464,-92.2894,Little Rock,Arkansas,AR,Pulaski,US
72295,34.7519,-92.3925,Little Rock,Arkansas,AR,Pulaski,US
72413,36.2844,-90.8538,Biggers,Arkansas,AR,Randolph,US
72444,36.4386,-90.8749,Maynard,Arkansas,AR,Randolph,US
72449,36.1797,-90.8241,O Kean,Arkansas,AR,Randolph,US
72455,36.2829,-90.9968,Pocahontas,Arkansas,AR,Randolph,US
72460,36.3104,-91.2094,Ravenden Springs,Arkansas,AR,Randolph,US
72462,36.3744,-90.7676,Reyno,Arkansas,AR,Randolph,US
72478,36.4803,-91.0515,Warm Springs,Arkansas,AR,Randolph,US
72322,35.0562,-90.8288,Caldwell,Arkansas,AR,St. Francis,US
72326,35.0881,-90.8895,Colt,Arkansas,AR,St. Francis,US
72335,35.0091,-90.7886,Forrest City,Arkansas,AR,St. Francis,US
72336,35.0081,-90.7898,Forrest City,Arkansas,AR,St. Francis,US
72340,34.9358,-91.0292,Goodwin,Arkansas,AR,St. Francis,US
72346,35.0973,-90.4586,Heth,Arkansas,AR,St. Francis,US
72348,34.9454,-90.4741,Hughes,Arkansas,AR,St. Francis,US
72359,35.0252,-90.7086,Madison,Arkansas,AR,St. Francis,US
72372,34.9663,-90.9049,Palestine,Arkansas,AR,St. Francis,US
72392,34.9207,-91.1086,Wheatley,Arkansas,AR,St. Francis,US
72394,35.0592,-90.6293,Widener,Arkansas,AR,St. Francis,US
72011,34.5091,-92.4828,Bauxite,Arkansas,AR,Saline,US
72015,34.4933,-92.5896,Benton,Arkansas,AR,Saline,US
72018,34.5645,-92.5868,Benton,Arkansas,AR,Saline,US
72022,34.6068,-92.492,Bryant,Arkansas,AR,Saline,US
72089,34.5959,-92.48899999999999,Bryant,Arkansas,AR,Saline,US
72122,34.7853,-92.7482,Paron,Arkansas,AR,Saline,US
72158,34.635,-92.6597,Benton,Arkansas,AR,Saline,US
72167,34.4508,-92.6547,Traskwood,Arkansas,AR,Saline,US
72841,34.8762,-93.764,Harvey,Arkansas,AR,Scott,US
72926,34.7654,-94.0629,Boles,Arkansas,AR,Scott,US
72944,35.0432,-94.2204,Mansfield,Arkansas,AR,Scott,US
72950,34.8003,-93.9509,Parks,Arkansas,AR,Scott,US
72958,34.9026,-94.0772,Waldron,Arkansas,AR,Scott,US
72636,35.9879,-92.7163,Gilbert,Arkansas,AR,Searcy,US
72639,35.9991,-92.5042,Harriet,Arkansas,AR,Searcy,US
72645,35.8272,-92.5663,Leslie,Arkansas,AR,Searcy,US
72650,35.9267,-92.6402,Marshall,Arkansas,AR,Searcy,US
72669,36.0675,-92.8864,Pindall,Arkansas,AR,Searcy,US
72675,35.9877,-92.7928,Saint Joe,Arkansas,AR,Searcy,US
72686,35.7681,-92.8668,Witts Springs,Arkansas,AR,Searcy,US
72901,35.3653,-94.411,Fort Smith,Arkansas,AR,Sebastian,US
72902,35.3862,-94.4091,Fort Smith,Arkansas,AR,Sebastian,US
72903,35.3427,-94.3784,Fort Smith,Arkansas,AR,Sebastian,US
72904,35.4051,-94.3872,Fort Smith,Arkansas,AR,Sebastian,US
72905,35.3859,-94.3985,Fort Smith,Arkansas,AR,Sebastian,US
72906,35.3859,-94.3985,Fort Smith,Arkansas,AR,Sebastian,US
72908,35.3219,-94.4028,Fort Smith,Arkansas,AR,Sebastian,US
72913,35.3859,-94.3985,Fort Smith,Arkansas,AR,Sebastian,US
72914,35.3859,-94.3985,Fort Smith,Arkansas,AR,Sebastian,US
72916,35.2502,-94.3703,Fort Smith,Arkansas,AR,Sebastian,US
72917,35.3859,-94.3985,Fort Smith,Arkansas,AR,Sebastian,US
72918,35.3859,-94.3985,Fort Smith,Arkansas,AR,Sebastian,US
72919,35.3859,-94.3985,Fort Smith,Arkansas,AR,Sebastian,US
72923,35.333,-94.3082,Barling,Arkansas,AR,Sebastian,US
72936,35.1955,-94.25299999999999,Greenwood,Arkansas,AR,Sebastian,US
72937,35.1945,-94.3983,Hackett,Arkansas,AR,Sebastian,US
72938,35.0222,-94.3819,Hartford,Arkansas,AR,Sebastian,US
72940,35.0963,-94.3313,Huntington,Arkansas,AR,Sebastian,US
72941,35.3661,-94.1917,Lavaca,Arkansas,AR,Sebastian,US
72945,35.0932,-94.3533,Midland,Arkansas,AR,Sebastian,US
71823,33.8115,-94.1251,Ben Lomond,Arkansas,AR,Sevier,US
71832,34.0442,-94.3386,De Queen,Arkansas,AR,Sevier,US
71841,34.157,-94.3165,Gillham,Arkansas,AR,Sevier,US
71842,33.9392,-94.2959,Horatio,Arkansas,AR,Sevier,US
71846,33.9306,-94.1276,Lockesburg,Arkansas,AR,Sevier,US
72482,36.2453,-91.3792,Williford,Arkansas,AR,Sharp,US
72513,36.2201,-91.6421,Ash Flat,Arkansas,AR,Sharp,US
72521,35.9517,-91.5444,Cave City,Arkansas,AR,Sharp,US
72525,36.311,-91.59700000000001,Cherokee Village,Arkansas,AR,Sharp,US
72529,36.3011,-91.5281,Cherokee Village,Arkansas,AR,Sharp,US
72532,36.0855,-91.598,Evening Shade,Arkansas,AR,Sharp,US
72542,36.3227,-91.411,Hardy,Arkansas,AR,Sharp,US
72569,36.0767,-91.4793,Poughkeepsie,Arkansas,AR,Sharp,US
72577,36.0664,-91.64200000000001,Sidney,Arkansas,AR,Sharp,US
72051,35.7682,-92.3043,Fox,Arkansas,AR,Stone,US
72533,35.992,-92.2182,Fifty Six,Arkansas,AR,Stone,US
72555,35.7756,-91.8718,Marcella,Arkansas,AR,Stone,US
72560,35.8208,-92.0389,Mountain View,Arkansas,AR,Stone,US
72567,35.8265,-91.8958,Pleasant Grove,Arkansas,AR,Stone,US
72657,35.919000000000004,-92.1272,Timbo,Arkansas,AR,Stone,US
72663,35.9403,-92.3459,Onia,Arkansas,AR,Stone,US
72680,35.8845,-92.2913,Timbo,Arkansas,AR,Stone,US
71724,33.3261,-92.5464,Calion,Arkansas,AR,Union,US
71730,33.2073,-92.6629,El Dorado,Arkansas,AR,Union,US
71731,33.2076,-92.6663,El Dorado,Arkansas,AR,Union,US
71747,33.0459,-92.1942,Huttig,Arkansas,AR,Union,US
71749,33.0163,-92.7243,Junction City,Arkansas,AR,Union,US
71750,33.1968,-92.4829,Lawson,Arkansas,AR,Union,US
71758,33.3085,-92.9443,Mount Holly,Arkansas,AR,Union,US
71759,33.316,-92.6629,Norphlet,Arkansas,AR,Union,US
71762,33.3398,-92.7442,Smackover,Arkansas,AR,Union,US
71765,33.1195,-92.3621,Strong,Arkansas,AR,Union,US
72013,35.4683,-92.3779,Bee Branch,Arkansas,AR,Van Buren,US
72028,35.5773,-92.5456,Choctaw,Arkansas,AR,Van Buren,US
72031,35.6045,-92.4758,Clinton,Arkansas,AR,Van Buren,US
72088,35.6027,-92.2742,Fairfield Bay,Arkansas,AR,Van Buren,US
72141,35.508,-92.5867,Scotland,Arkansas,AR,Van Buren,US
72153,35.6498,-92.3143,Shirley,Arkansas,AR,Van Buren,US
72629,35.7252,-92.5575,Dennard,Arkansas,AR,Van Buren,US
72701,36.052,-94.1534,Fayetteville,Arkansas,AR,Washington,US
72702,36.0626,-94.1574,Fayetteville,Arkansas,AR,Washington,US
72703,36.0992,-94.1716,Fayetteville,Arkansas,AR,Washington,US
72704,36.0877,-94.3093,Fayetteville,Arkansas,AR,Washington,US
72717,35.8477,-94.4441,Canehill,Arkansas,AR,Washington,US
72727,36.0177,-94.0073,Elkins,Arkansas,AR,Washington,US
72728,36.21,-94.2546,Elm Springs,Arkansas,AR,Washington,US
72729,35.7823,-94.4638,Evansville,Arkansas,AR,Washington,US
72730,36.0436,-94.2539,Farmington,Arkansas,AR,Washington,US
72735,36.0876,-93.9666,Goshen,Arkansas,AR,Washington,US
72737,35.9942,-94.1752,Greenland,Arkansas,AR,Washington,US
72741,36.1329,-94.1655,Johnson,Arkansas,AR,Washington,US
72744,35.9569,-94.4272,Lincoln,Arkansas,AR,Washington,US
72749,35.8654,-94.4432,Morrow,Arkansas,AR,Washington,US
72753,35.9918,-94.3169,Prairie Grove,Arkansas,AR,Washington,US
72762,36.1835,-94.1762,Springdale,Arkansas,AR,Washington,US
72764,36.1716,-94.0428,Springdale,Arkansas,AR,Washington,US
72765,36.1725,-94.1535,Springdale,Arkansas,AR,Washington,US
72766,36.1867,-94.1288,Springdale,Arkansas,AR,Washington,US
72769,36.0138,-94.5,Summers,Arkansas,AR,Washington,US
72770,36.15,-94.2429,Tontitown,Arkansas,AR,Washington,US
72774,35.9082,-94.2304,West Fork,Arkansas,AR,Washington,US
72959,35.8312,-94.1187,Winslow,Arkansas,AR,Washington,US
72010,35.3113,-91.5502,Bald Knob,Arkansas,AR,White,US
72012,35.0937,-91.9074,Beebe,Arkansas,AR,White,US
72020,35.4277,-91.51899999999999,Bradford,Arkansas,AR,White,US
72045,35.1142,-92.0901,El Paso,Arkansas,AR,White,US
